{
"type": "FeatureCollection",
"name": "mcdonalds_usa",
"crs": { "type": "name", "properties": { "name": "urn:ogc:def:crs:OGC:1.3:CRS84" } },
"features": [
{ "type": "Feature", "properties": { "name": "McDonalds-Anchorage,AK", "additional": "1166 North Muldoon Road [Glenn Hwy], Anchorage,AK 99504", "phone": " (907) 337-0810", "services": " dt\/wifi" }, "geometry": { "type": "Point", "coordinates": [ -149.8584, 61.2176 ] } },
{ "type": "Feature", "properties": { "name": "McDonalds-Anchorage,AK", "additional": "1320 Huffman Rd, Anchorage,AK", "phone": " (907) 345-5932", "services": " dt\/wifi" }, "geometry": { "type": "Point", "coordinates": [ -149.858, 61.1084 ] } },
{ "type": "Feature", "properties": { "name": "McDonalds-Anchorage,AK", "additional": "255 Muldoon Rd, Anchorage,AK", "phone": " (907) 337-0810", "services": " dt\/wifi" }, "geometry": { "type": "Point", "coordinates": [ -149.7327, 61.2214 ] } },
{ "type": "Feature", "properties": { "name": "McDonalds-Anchorage,AK", "additional": "2601 E Tudor Rd, Anchorage,AK", "phone": " (907) 562-2108", "services": " dt\/wifi" }, "geometry": { "type": "Point", "coordinates": [ -149.8324, 61.1812 ] } },
{ "type": "Feature", "properties": { "name": "McDonalds-Anchorage,AK", "additional": "3006 Mountain View Dr, Anchorage,AK", "phone": " (907) 274-5686", "services": " dt\/wifi" }, "geometry": { "type": "Point", "coordinates": [ -149.8236, 61.2194 ] } },
{ "type": "Feature", "properties": { "name": "McDonalds PlayPlace-Anchorage,AK", "additional": "3035 Muldoon Rd, Anchorage,AK", "phone": " (907) 338-7377", "services": " dt\/wifi" }, "geometry": { "type": "Point", "coordinates": [ -149.7327, 61.1928 ] } },
{ "type": "Feature", "properties": { "name": "McDonalds [WM]-Anchorage,AK", "additional": "3101 A St [WM], Anchorage,AK", "phone": " (907) 561-5137", "services": " wifi" }, "geometry": { "type": "Point", "coordinates": [ -149.8811, 61.1924 ] } },
{ "type": "Feature", "properties": { "name": "McDonalds PlayPlace-Anchorage,AK", "additional": "3828 W Dimond Blvd, Anchorage,AK", "phone": " (907) 248-0597", "services": " dt\/wifi" }, "geometry": { "type": "Point", "coordinates": [ -149.9508, 61.1371 ] } },
{ "type": "Feature", "properties": { "name": "McDonalds PlayPlace-Anchorage,AK", "additional": "4350 Spenard Rd, Anchorage,AK", "phone": " (907) 243-5122", "services": " dt\/wifi" }, "geometry": { "type": "Point", "coordinates": [ -149.9368, 61.1815 ] } },
{ "type": "Feature", "properties": { "name": "McDonalds-Anchorage,AK", "additional": "5000 W International Airport Rd, Anchorage,AK", "phone": " (907) 243-0085", "services": " none" }, "geometry": { "type": "Point", "coordinates": [ -149.98, 61.173 ] } },
{ "type": "Feature", "properties": { "name": "McDonalds-Anchorage,AK", "additional": "5716 Debarr Rd, Anchorage,AK", "phone": " (907) 333-0413", "services": " dt\/wifi" }, "geometry": { "type": "Point", "coordinates": [ -149.7751, 61.2094 ] } },
{ "type": "Feature", "properties": { "name": "McDonalds-Anchorage,AK", "additional": "701 E 36th Ave, Anchorage,AK", "phone": " (907) 563-0658", "services": " dt\/wifi" }, "geometry": { "type": "Point", "coordinates": [ -149.8706, 61.1883 ] } },
{ "type": "Feature", "properties": { "name": "McDonalds-Anchorage,AK", "additional": "800 W Northern Lights Blvd, Anchorage,AK", "phone": " (907) 561-5525", "services": " dt\/wifi" }, "geometry": { "type": "Point", "coordinates": [ -149.8986, 61.1948 ] } },
{ "type": "Feature", "properties": { "name": "McDonalds [WM]-Anchorage,AK", "additional": "8900 Old Seward Hwy [WM], Anchorage,AK", "phone": " (907) 344-5831", "services": " wifi" }, "geometry": { "type": "Point", "coordinates": [ -149.8683, 61.1401 ] } },
{ "type": "Feature", "properties": { "name": "McDonalds-Anchorage,AK", "additional": "8915 Old Seward Hwy, Anchorage,AK", "phone": " (907) 344-4231", "services": " dt\/wifi" }, "geometry": { "type": "Point", "coordinates": [ -149.8632, 61.1399 ] } },
{ "type": "Feature", "properties": { "name": "McDonalds PlayPlace-Anchorage,AK", "additional": "9100 Lake Otis Pky, Anchorage,AK", "phone": " (907) 349-0285", "services": " dt\/wifi" }, "geometry": { "type": "Point", "coordinates": [ -149.8351, 61.1382 ] } },
{ "type": "Feature", "properties": { "name": "McDonalds PlayPlace-Eagle River,AK", "additional": "11808 Old Glenn Hwy, Eagle River,AK", "phone": " (907) 694-4500", "services": " dt\/wifi" }, "geometry": { "type": "Point", "coordinates": [ -149.5712, 61.327 ] } },
{ "type": "Feature", "properties": { "name": "McDonalds PlayPlace-Fairbanks,AK", "additional": "1930 Airport Way, Fairbanks,AK", "phone": " (907) 452-4600", "services": " dt\/wifi" }, "geometry": { "type": "Point", "coordinates": [ -147.7591, 64.8373 ] } },
{ "type": "Feature", "properties": { "name": "McDonalds PlayPlace-Fairbanks,AK", "additional": "3905 Geist Rd, Fairbanks,AK", "phone": " (907) 474-2010", "services": " dt\/wifi" }, "geometry": { "type": "Point", "coordinates": [ -147.8201, 64.8487 ] } },
{ "type": "Feature", "properties": { "name": "McDonalds PlayPlace-Fairbanks,AK", "additional": "449 Harold Bentley Ave, Fairbanks,AK", "phone": " (907) 451-0770", "services": " dt\/wifi" }, "geometry": { "type": "Point", "coordinates": [ -147.6966, 64.8594 ] } },
{ "type": "Feature", "properties": { "name": "McDonalds-Homer,AK", "additional": "3656 Ben Walters Ln, Homer,AK", "phone": " (907) 235-5400", "services": " dt\/wifi" }, "geometry": { "type": "Point", "coordinates": [ -151.5231, 59.6427 ] } },
{ "type": "Feature", "properties": { "name": "McDonalds PlayPlace-Juneau,AK", "additional": "2285 Trout St, Juneau,AK 99801-8036", "phone": " (907) 789-4653", "services": " dt\/wifi" }, "geometry": { "type": "Point", "coordinates": [ -134.576, 58.3643 ] } },
{ "type": "Feature", "properties": { "name": "McDonalds PlayPlace-Kenai,AK", "additional": "10447 Kenai Spur Hwy, Kenai,AK", "phone": " (907) 283-4008", "services": " dt\/wifi" }, "geometry": { "type": "Point", "coordinates": [ -151.2359, 60.5598 ] } },
{ "type": "Feature", "properties": { "name": "McDonalds-Ketchikan,AK", "additional": "2417 Tongass Ave Ste 108, Ketchikan,AK 99901", "phone": " (907) 225-1704", "services": " dt\/wifi" }, "geometry": { "type": "Point", "coordinates": [ -131.674, 55.3495 ] } },
{ "type": "Feature", "properties": { "name": "McDonalds-Kodiak,AK", "additional": "209 Thorsheim Ave, Kodiak,AK 99615-6036", "phone": " (907) 486-3030", "services": " dt\/wifi" }, "geometry": { "type": "Point", "coordinates": [ -152.4067, 57.7909 ] } },
{ "type": "Feature", "properties": { "name": "McDonalds PlayPlace-North Pole,AK", "additional": "352 N Santa Claus Ln, North Pole,AK", "phone": " (907) 488-7779", "services": " dt\/wifi" }, "geometry": { "type": "Point", "coordinates": [ -147.3514, 64.7581 ] } },
{ "type": "Feature", "properties": { "name": "McDonalds-Palmer,AK", "additional": "600 W Daron Dr, Palmer,AK", "phone": " (907) 746-0335", "services": " dt\/wifi" }, "geometry": { "type": "Point", "coordinates": [ -149.1237, 61.599 ] } },
{ "type": "Feature", "properties": { "name": "McDonalds-Sitka,AK", "additional": "913 Halibut Point Rd, Sitka,AK 99835-7105", "phone": " (907) 747-8709", "services": " dt\/wifi" }, "geometry": { "type": "Point", "coordinates": [ -135.348, 57.0596 ] } },
{ "type": "Feature", "properties": { "name": "McDonalds-Soldotna,AK", "additional": "44420 Sterling Hwy, Soldotna,AK", "phone": " (907) 262-1074", "services": " dt\/wifi" }, "geometry": { "type": "Point", "coordinates": [ -151.071, 60.4831 ] } },
{ "type": "Feature", "properties": { "name": "McDonalds [WM]-Wasilla,AK", "additional": "1350 S Seward Meridian [WM], Wasilla,AK", "phone": " (907) 373-2523", "services": " wifi" }, "geometry": { "type": "Point", "coordinates": [ -149.3641, 61.5693 ] } },
{ "type": "Feature", "properties": { "name": "McDonalds PlayPlace-Wasilla,AK", "additional": "801 E Parks Hwy, Wasilla,AK", "phone": " (907) 376-4433", "services": " dt\/wifi" }, "geometry": { "type": "Point", "coordinates": [ -149.4309, 61.5814 ] } },
{ "type": "Feature", "properties": { "name": "McDonalds-Abbeville,AL", "additional": "2716 US Hwy 431 South, Abbeville,AL 36310", "phone": " (334) 585-0715", "services": " dt\/wifi" }, "geometry": { "type": "Point", "coordinates": [ -85.2856, 31.5503 ] } },
{ "type": "Feature", "properties": { "name": "McDonalds PlayPlace-Adamsville,AL", "additional": "5721 Veterans Memorial Pkwy, Adamsville,AL", "phone": " (205) 674-7288", "services": " dt\/wifi" }, "geometry": { "type": "Point", "coordinates": [ -86.964, 33.6107 ] } },
{ "type": "Feature", "properties": { "name": "McDonalds-Alabaster,AL", "additional": "1493 1st St N, Alabaster,AL", "phone": " (205) 664-3761", "services": " dt\/wifi" }, "geometry": { "type": "Point", "coordinates": [ -86.812, 33.2627 ] } },
{ "type": "Feature", "properties": { "name": "McDonalds-Alabaster,AL", "additional": "205 S Colonial Dr, Alabaster,AL", "phone": " (205) 621-2805", "services": " dt\/wifi" }, "geometry": { "type": "Point", "coordinates": [ -86.8052, 33.2283 ] } },
{ "type": "Feature", "properties": { "name": "McDonalds PlayPlace-Albertville,AL", "additional": "7375 Us Hwy 431, Albertville,AL", "phone": " (256) 878-6755", "services": " dt\/wifi" }, "geometry": { "type": "Point", "coordinates": [ -86.2071, 34.2767 ] } },
{ "type": "Feature", "properties": { "name": "McDonalds-Alexander City,AL", "additional": "4094 Highway 280, Alexander City,AL", "phone": " (256) 329-1283", "services": " dt\/wifi" }, "geometry": { "type": "Point", "coordinates": [ -85.9585, 32.9212 ] } },
{ "type": "Feature", "properties": { "name": "McDonalds-Altoona,AL", "additional": "87134 Us Hwy 278, Altoona,AL", "phone": " (205) 466-5211", "services": " dt\/wifi" }, "geometry": { "type": "Point", "coordinates": [ -86.3942, 34.1188 ] } },
{ "type": "Feature", "properties": { "name": "McDonalds-Andalusia,AL", "additional": "315 US Hwy Byp W, Andalusia,AL", "phone": " (334) 222-7875", "services": " dt\/wifi" }, "geometry": { "type": "Point", "coordinates": [ -86.5184, 31.2759 ] } },
{ "type": "Feature", "properties": { "name": "McDonalds PlayPlace-Anniston,AL", "additional": "1901 Quintard Ave, Anniston,AL", "phone": " (256) 236-5224", "services": " dt\/wifi" }, "geometry": { "type": "Point", "coordinates": [ -85.8266, 33.6691 ] } },
{ "type": "Feature", "properties": { "name": "McDonalds PlayPlace-Anniston,AL", "additional": "3424 Greenbrier Dear Dr, Anniston,AL", "phone": " (256) 832-4543", "services": " dt\/wifi" }, "geometry": { "type": "Point", "coordinates": [ -85.7888, 33.6291 ] } },
{ "type": "Feature", "properties": { "name": "McDonalds-Anniston,AL", "additional": "5550 Mcclellan Blvd, Anniston,AL", "phone": " (256) 820-0038", "services": " dt\/wifi" }, "geometry": { "type": "Point", "coordinates": [ -85.818, 33.7195 ] } },
{ "type": "Feature", "properties": { "name": "McDonalds PlayPlace-Arab,AL", "additional": "700 N Brandlee Pkwy, Arab,AL", "phone": " (256) 586-8792", "services": " dt\/wifi" }, "geometry": { "type": "Point", "coordinates": [ -86.5028, 34.3258 ] } },
{ "type": "Feature", "properties": { "name": "McDonalds PlayPlace-Ardmore,AL", "additional": "26862 Main St, Ardmore,AL", "phone": " (256) 423-3663", "services": " dt\/wifi" }, "geometry": { "type": "Point", "coordinates": [ -86.8402, 34.9918 ] } },
{ "type": "Feature", "properties": { "name": "McDonalds-Ashland,AL", "additional": "83690 Hwy 9, Ashland,AL", "phone": " (256) 354-2339", "services": " dt\/wifi" }, "geometry": { "type": "Point", "coordinates": [ -85.8263, 33.2756 ] } },
{ "type": "Feature", "properties": { "name": "McDonalds-Athens,AL", "additional": "103 Us 31 N, Athens,AL", "phone": " (256) 233-1275", "services": " dt\/wifi" }, "geometry": { "type": "Point", "coordinates": [ -86.9509, 34.8049 ] } },
{ "type": "Feature", "properties": { "name": "McDonalds-Athens,AL", "additional": "1529 Us 72 E, Athens,AL", "phone": " (256) 232-1927", "services": " dt\/wifi" }, "geometry": { "type": "Point", "coordinates": [ -86.9383, 34.7828 ] } },
{ "type": "Feature", "properties": { "name": "McDonalds PlayPlace-Atmore,AL", "additional": "1414 S Main St, Atmore,AL", "phone": " (251) 368-2267", "services": " dt\/wifi" }, "geometry": { "type": "Point", "coordinates": [ -87.4938, 31.0065 ] } },
{ "type": "Feature", "properties": { "name": "McDonalds-Atmore,AL", "additional": "5995 Hwy 21, Atmore,AL 36502", "phone": " (251) 368-9753", "services": " dt\/wifi" }, "geometry": { "type": "Point", "coordinates": [ -87.4746, 31.1097 ] } },
{ "type": "Feature", "properties": { "name": "McDonalds-Attalla,AL", "additional": "610 Cleveland Ave, Attalla,AL", "phone": " (256) 538-1107", "services": " dt\/wifi" }, "geometry": { "type": "Point", "coordinates": [ -86.0773, 34.0181 ] } },
{ "type": "Feature", "properties": { "name": "McDonalds PlayPlace-Auburn,AL", "additional": "1634 Opelika Hwy, Auburn,AL", "phone": " (334) 821-5303", "services": " dt\/wifi" }, "geometry": { "type": "Point", "coordinates": [ -85.4457, 32.6249 ] } },
{ "type": "Feature", "properties": { "name": "McDonalds-Auburn,AL", "additional": "224 West Magnolia Ave, Auburn,AL", "phone": " (334) 821-7185", "services": " dt\/wifi" }, "geometry": { "type": "Point", "coordinates": [ -85.4835, 32.6066 ] } },
{ "type": "Feature", "properties": { "name": "McDonalds-Auburn,AL", "additional": "2372 College St, Auburn,AL", "phone": " (334) 502-8900", "services": " dt\/wifi" }, "geometry": { "type": "Point", "coordinates": [ -85.5052, 32.561 ] } },
{ "type": "Feature", "properties": { "name": "McDonalds-Bay Minette,AL", "additional": "98 McMeans Ave, Bay Minette,AL", "phone": " (251) 937-2611", "services": " dt\/wifi" }, "geometry": { "type": "Point", "coordinates": [ -87.7838, 30.8791 ] } },
{ "type": "Feature", "properties": { "name": "McDonalds PlayPlace-Bessemer,AL", "additional": "1195 Greenmor Dr, Bessemer,AL", "phone": " (205) 425-6200", "services": " dt\/wifi" }, "geometry": { "type": "Point", "coordinates": [ -86.9222, 33.3371 ] } },
{ "type": "Feature", "properties": { "name": "McDonalds PlayPlace-Bessemer,AL", "additional": "765 Academy Dr, Bessemer,AL", "phone": " (205) 425-4727", "services": " dt\/wifi" }, "geometry": { "type": "Point", "coordinates": [ -86.9986, 33.3626 ] } },
{ "type": "Feature", "properties": { "name": "McDonalds PlayPlace-Bessemer,AL", "additional": "911 9th Ave N, Bessemer,AL", "phone": " (205) 428-9768", "services": " dt\/wifi" }, "geometry": { "type": "Point", "coordinates": [ -86.9694, 33.3958 ] } },
{ "type": "Feature", "properties": { "name": "McDonalds-Birmingham,AL", "additional": "1309 Forestdale Blvd, Birmingham,AL", "phone": " (205) 798-2896", "services": " dt\/wifi" }, "geometry": { "type": "Point", "coordinates": [ -86.8928, 33.5616 ] } },
{ "type": "Feature", "properties": { "name": "McDonalds-Birmingham,AL", "additional": "1501 5th Ave S, Birmingham,AL", "phone": " (205) 933-1650", "services": " dt\/wifi" }, "geometry": { "type": "Point", "coordinates": [ -86.8078, 33.5046 ] } },
{ "type": "Feature", "properties": { "name": "McDonalds-Birmingham,AL", "additional": "1569 Montclair Rd, Birmingham,AL", "phone": " (205) 956-9666", "services": " dt\/wifi" }, "geometry": { "type": "Point", "coordinates": [ -86.7215, 33.5255 ] } },
{ "type": "Feature", "properties": { "name": "McDonalds-Birmingham,AL", "additional": "1700 Finley Blvd, Birmingham,AL", "phone": " (205) 254-3646", "services": " dt\/wifi" }, "geometry": { "type": "Point", "coordinates": [ -86.8277, 33.5406 ] } },
{ "type": "Feature", "properties": { "name": "McDonalds-Birmingham,AL", "additional": "1907 Center Point Rd, Birmingham,AL", "phone": " (205) 854-4362", "services": " dt\/wifi" }, "geometry": { "type": "Point", "coordinates": [ -86.6837, 33.6367 ] } },
{ "type": "Feature", "properties": { "name": "McDonalds PlayPlace-Birmingham,AL", "additional": "218 Gadsden Hwy, Birmingham,AL 35235", "phone": " (205) 853-5149", "services": " dt\/wifi" }, "geometry": { "type": "Point", "coordinates": [ -86.6966, 33.5879 ] } },
{ "type": "Feature", "properties": { "name": "McDonalds PlayPlace-Birmingham,AL", "additional": "2201 Bessemer Hwy, Birmingham,AL", "phone": " (205) 780-5841", "services": " dt\/wifi" }, "geometry": { "type": "Point", "coordinates": [ -86.8787, 33.4953 ] } },
{ "type": "Feature", "properties": { "name": "McDonalds PlayPlace-Birmingham,AL", "additional": "2640 Valleydale Rd, Birmingham,AL", "phone": " (205) 408-7448", "services": " dt\/wifi" }, "geometry": { "type": "Point", "coordinates": [ -86.7399, 33.3837 ] } },
{ "type": "Feature", "properties": { "name": "McDonalds-Birmingham,AL", "additional": "2733 8th Ave, Birmingham,AL", "phone": " (205) 324-5892", "services": " dt\/wifi" }, "geometry": { "type": "Point", "coordinates": [ -86.7882, 33.5098 ] } },
{ "type": "Feature", "properties": { "name": "McDonalds-Birmingham,AL", "additional": "3013 12th Ave N, Birmingham,AL", "phone": " (205) 324-5005", "services": " dt\/wifi" }, "geometry": { "type": "Point", "coordinates": [ -86.8002, 33.5336 ] } },
{ "type": "Feature", "properties": { "name": "McDonalds-Birmingham,AL", "additional": "3220 26th St N, Birmingham,AL", "phone": " (205) 324-8945", "services": " dt\/wifi" }, "geometry": { "type": "Point", "coordinates": [ -86.8191, 33.5539 ] } },
{ "type": "Feature", "properties": { "name": "McDonalds-Birmingham,AL", "additional": "4625 Hwy 280 S, Birmingham,AL", "phone": " (205) 991-3086", "services": " dt\/wifi" }, "geometry": { "type": "Point", "coordinates": [ -86.8115, 33.5203 ] } },
{ "type": "Feature", "properties": { "name": "McDonalds [WM]-Birmingham,AL", "additional": "5335 Hwy US 280 [WM], Birmingham,AL", "phone": " (205) 980-4948", "services": " none" }, "geometry": { "type": "Point", "coordinates": [ -86.6758, 33.4212 ] } },
{ "type": "Feature", "properties": { "name": "McDonalds-Birmingham,AL", "additional": "5904 1st Ave N, Birmingham,AL", "phone": " (205) 592-2671", "services": " dt\/wifi" }, "geometry": { "type": "Point", "coordinates": [ -86.7486, 33.5435 ] } },
{ "type": "Feature", "properties": { "name": "McDonalds-Birmingham,AL", "additional": "732 Lomb Ave Sw, Birmingham,AL", "phone": " (205) 787-6245", "services": " dt\/wifi" }, "geometry": { "type": "Point", "coordinates": [ -86.8471, 33.5 ] } },
{ "type": "Feature", "properties": { "name": "McDonalds-Birmingham,AL", "additional": "801 Dennison Ave, Birmingham,AL", "phone": " (205) 323-5387", "services": " dt\/wifi" }, "geometry": { "type": "Point", "coordinates": [ -86.8397, 33.4805 ] } },
{ "type": "Feature", "properties": { "name": "McDonalds PlayPlace-Boaz,AL", "additional": "861 Us Hwy 431 S, Boaz,AL", "phone": " (256) 593-1015", "services": " dt\/wifi" }, "geometry": { "type": "Point", "coordinates": [ -86.1507, 34.1987 ] } },
{ "type": "Feature", "properties": { "name": "McDonalds-Brewton,AL", "additional": "464 South Blvd, Brewton,AL", "phone": " (251) 867-4540", "services": " dt\/wifi" }, "geometry": { "type": "Point", "coordinates": [ -87.0798, 31.0995 ] } },
{ "type": "Feature", "properties": { "name": "McDonalds-Brighton,AL", "additional": "3633 Jaybird Rd, Brighton,AL", "phone": " (205) 428-3837", "services": " dt\/wifi" }, "geometry": { "type": "Point", "coordinates": [ -86.9528, 33.4275 ] } },
{ "type": "Feature", "properties": { "name": "McDonalds-Butler,AL", "additional": "221 East Pushamtaha St, Butler,AL 36904", "phone": " (205) 459-3399", "services": " dt\/wifi" }, "geometry": { "type": "Point", "coordinates": [ -88.2194, 32.0902 ] } },
{ "type": "Feature", "properties": { "name": "McDonalds PlayPlace-Calera,AL", "additional": "706 Supercenter Dr, Calera,AL", "phone": " (205) 668-7588", "services": " dt\/wifi" }, "geometry": { "type": "Point", "coordinates": [ -86.7498, 33.1469 ] } },
{ "type": "Feature", "properties": { "name": "McDonalds-Calvert,AL", "additional": "20890 Hwy 43, Calvert,AL 36560", "phone": " (251) 829-9480", "services": " dt\/wifi" }, "geometry": { "type": "Point", "coordinates": [ -88.0097, 31.1278 ] } },
{ "type": "Feature", "properties": { "name": "McDonalds PlayPlace-Centre,AL", "additional": "650 Cedar Bluff Rd, Centre,AL", "phone": " (256) 927-4200", "services": " dt\/wifi" }, "geometry": { "type": "Point", "coordinates": [ -85.6682, 34.1602 ] } },
{ "type": "Feature", "properties": { "name": "McDonalds PlayPlace-Centreville,AL", "additional": "385 Walnut St, Centreville,AL", "phone": " (205) 926-6186", "services": " dt\/wifi" }, "geometry": { "type": "Point", "coordinates": [ -87.1492, 32.9447 ] } },
{ "type": "Feature", "properties": { "name": "McDonalds PlayPlace-Chelsea,AL", "additional": "16758 Us Hwy 280, Chelsea,AL", "phone": " (205) 678-0505", "services": " dt\/wifi" }, "geometry": { "type": "Point", "coordinates": [ -86.6338, 33.3481 ] } },
{ "type": "Feature", "properties": { "name": "McDonalds PlayPlace-Childersburg,AL", "additional": "33785 Us Hwy 280, Childersburg,AL", "phone": " (256) 378-5977", "services": " dt\/wifi" }, "geometry": { "type": "Point", "coordinates": [ -86.3507, 33.2649 ] } },
{ "type": "Feature", "properties": { "name": "McDonalds-Clanton,AL", "additional": "2250 7th St S, Clanton,AL", "phone": " (205) 755-8411", "services": " dt\/wifi" }, "geometry": { "type": "Point", "coordinates": [ -86.5761, 32.8011 ] } },
{ "type": "Feature", "properties": { "name": "McDonalds PlayPlace-Columbiana,AL", "additional": "301 W College St, Columbiana,AL", "phone": " (205) 669-7710", "services": " dt\/wifi" }, "geometry": { "type": "Point", "coordinates": [ -86.6159, 33.1798 ] } },
{ "type": "Feature", "properties": { "name": "McDonalds PlayPlace-Cottondale,AL", "additional": "6501 Interstate Ln, Cottondale,AL", "phone": " (205) 507-0700", "services": " dt\/wifi" }, "geometry": { "type": "Point", "coordinates": [ -87.448, 33.1761 ] } },
{ "type": "Feature", "properties": { "name": "McDonalds-Cullman,AL", "additional": "1425 2nd Ave Sw, Cullman,AL", "phone": " (256) 734-4073", "services": " dt\/wifi" }, "geometry": { "type": "Point", "coordinates": [ -86.8367, 34.1629 ] } },
{ "type": "Feature", "properties": { "name": "McDonalds-Cullman,AL", "additional": "6065 Al Highway 157, Cullman,AL", "phone": " (256) 734-4258", "services": " dt\/wifi" }, "geometry": { "type": "Point", "coordinates": [ -86.8754, 34.207 ] } },
{ "type": "Feature", "properties": { "name": "McDonalds-Dadeville,AL", "additional": "17956 Highway 280, Dadeville,AL", "phone": " (256) 825-8744", "services": " dt\/wifi" }, "geometry": { "type": "Point", "coordinates": [ -85.7303, 32.821 ] } },
{ "type": "Feature", "properties": { "name": "McDonalds-Daleville,AL", "additional": "575 N Daleville Ave, Daleville,AL", "phone": " (334) 598-6072", "services": " dt\/wifi" }, "geometry": { "type": "Point", "coordinates": [ -85.7128, 31.3093 ] } },
{ "type": "Feature", "properties": { "name": "McDonalds-Daphne,AL", "additional": "29138 Us 98, Daphne,AL", "phone": " (251) 621-3596", "services": " dt\/wifi" }, "geometry": { "type": "Point", "coordinates": [ -87.9123, 30.6496 ] } },
{ "type": "Feature", "properties": { "name": "McDonalds-Daphne,AL", "additional": "29919 Woodrow Lane, Daphne,AL", "phone": " (251) 626-9909", "services": " dt\/wifi" }, "geometry": { "type": "Point", "coordinates": [ -87.9015, 30.6039 ] } },
{ "type": "Feature", "properties": { "name": "McDonalds-Decatur,AL", "additional": "1208 6th Ave Se, Decatur,AL", "phone": " (256) 353-8911", "services": " dt\/wifi" }, "geometry": { "type": "Point", "coordinates": [ -86.9802, 34.5892 ] } },
{ "type": "Feature", "properties": { "name": "McDonalds-Decatur,AL", "additional": "2225 Danville Rd Sw, Decatur,AL", "phone": " (256) 350-7083", "services": " dt\/wifi" }, "geometry": { "type": "Point", "coordinates": [ -87.013, 34.5725 ] } },
{ "type": "Feature", "properties": { "name": "McDonalds-Decatur,AL", "additional": "3010 Alabama Hwy 20 NW, Decatur,AL 35601", "phone": " (256) 355-7651", "services": " dt\/wifi" }, "geometry": { "type": "Point", "coordinates": [ -87.0513, 34.6197 ] } },
{ "type": "Feature", "properties": { "name": "McDonalds PlayPlace-Decatur,AL", "additional": "3342 Point Mallard Pky Se, Decatur,AL", "phone": " (256) 584-6886", "services": " dt\/wifi" }, "geometry": { "type": "Point", "coordinates": [ -86.9087, 34.5359 ] } },
{ "type": "Feature", "properties": { "name": "McDonalds-Demopolis,AL", "additional": "1111 Walnut St, Demopolis,AL", "phone": " (334) 289-3069", "services": " dt\/wifi" }, "geometry": { "type": "Point", "coordinates": [ -87.8376, 32.5049 ] } },
{ "type": "Feature", "properties": { "name": "McDonalds-Dodge City,AL", "additional": "231 Hwy 69 S, Dodge City,AL", "phone": " (256) 287-9543", "services": " dt\/wifi" }, "geometry": { "type": "Point", "coordinates": [ -86.884, 34.0416 ] } },
{ "type": "Feature", "properties": { "name": "McDonalds PlayPlace-Dora,AL", "additional": "2445 Hwy 78, Dora,AL", "phone": " (205) 648-3673", "services": " dt\/wifi" }, "geometry": { "type": "Point", "coordinates": [ -87.066, 33.7593 ] } },
{ "type": "Feature", "properties": { "name": "McDonalds-Dothan,AL", "additional": "1081 Ross Clark Cir, Dothan,AL", "phone": " (334) 677-0779", "services": " dt\/wifi" }, "geometry": { "type": "Point", "coordinates": [ -85.3608, 31.2171 ] } },
{ "type": "Feature", "properties": { "name": "McDonalds-Dothan,AL", "additional": "2101 Ross Clark Cir, Dothan,AL", "phone": " (334) 794-0221", "services": " dt\/wifi" }, "geometry": { "type": "Point", "coordinates": [ -85.3976, 31.1897 ] } },
{ "type": "Feature", "properties": { "name": "McDonalds-Dothan,AL", "additional": "2251 Reeves St, Dothan,AL", "phone": " (334) 702-8338", "services": " dt\/wifi" }, "geometry": { "type": "Point", "coordinates": [ -85.3891, 31.2541 ] } },
{ "type": "Feature", "properties": { "name": "McDonalds PlayPlace-Dothan,AL", "additional": "3520 Ross Clark Cir, Dothan,AL", "phone": " (334) 792-0313", "services": " dt\/wifi" }, "geometry": { "type": "Point", "coordinates": [ -85.4277, 31.2459 ] } },
{ "type": "Feature", "properties": { "name": "McDonalds-Dothan,AL", "additional": "4740 W Main St, Dothan,AL 36303", "phone": " (334) 671-2369", "services": " dt\/wifi" }, "geometry": { "type": "Point", "coordinates": [ -85.4641, 31.2383 ] } },
{ "type": "Feature", "properties": { "name": "McDonalds-Dothan,AL", "additional": "5001 Montgomery Hwy, Dothan,AL 36303", "phone": " (334) 983-1268", "services": " dt\/wifi" }, "geometry": { "type": "Point", "coordinates": [ -85.4493, 31.2709 ] } },
{ "type": "Feature", "properties": { "name": "McDonalds-Dothan,AL", "additional": "619 W Main St, Dothan,AL", "phone": " (334) 793-1625", "services": " dt\/wifi" }, "geometry": { "type": "Point", "coordinates": [ -85.4002, 31.2251 ] } },
{ "type": "Feature", "properties": { "name": "McDonalds-Ensley,AL", "additional": "3520 Avenue E, Ensley,AL", "phone": " (205) 780-4146", "services": " dt\/wifi" }, "geometry": { "type": "Point", "coordinates": [ -86.9078, 33.4996 ] } },
{ "type": "Feature", "properties": { "name": "McDonalds PlayPlace-Enterprise,AL", "additional": "652 Boll Weevil North, Enterprise,AL", "phone": " (334) 347-3417", "services": " dt\/wifi" }, "geometry": { "type": "Point", "coordinates": [ -85.8622, 31.334 ] } },
{ "type": "Feature", "properties": { "name": "McDonalds-Eufaula,AL", "additional": "1250 S Eufaula Ave, Eufaula,AL", "phone": " (334) 687-6686", "services": " dt\/wifi" }, "geometry": { "type": "Point", "coordinates": [ -85.1563, 31.8711 ] } },
{ "type": "Feature", "properties": { "name": "McDonalds-Evergreen,AL", "additional": "Route 2 Box 294, Evergreen,AL", "phone": " (251) 578-3797", "services": " dt\/wifi" }, "geometry": { "type": "Point", "coordinates": [ -86.9643, 31.4554 ] } },
{ "type": "Feature", "properties": { "name": "McDonalds [WM]-Fairhope,AL", "additional": "10040 Country Rd 48 [WM], Fairhope,AL", "phone": " (251) 990-7882", "services": " none" }, "geometry": { "type": "Point", "coordinates": [ -87.8521, 30.5235 ] } },
{ "type": "Feature", "properties": { "name": "McDonalds-Fairhope,AL", "additional": "111 N Greeno Rd, Fairhope,AL", "phone": " (251) 990-8833", "services": " dt\/wifi" }, "geometry": { "type": "Point", "coordinates": [ -87.8863, 30.5255 ] } },
{ "type": "Feature", "properties": { "name": "McDonalds-Falkville,AL", "additional": "64 E Pike Road [Travel Center], Falkville,AL", "phone": " (256) 784-9661", "services": " dt\/wifi" }, "geometry": { "type": "Point", "coordinates": [ -86.8941, 34.3681 ] } },
{ "type": "Feature", "properties": { "name": "McDonalds PlayPlace-Fayette,AL", "additional": "1421 Temple Ave N, Fayette,AL", "phone": " (205) 932-8882", "services": " dt\/wifi" }, "geometry": { "type": "Point", "coordinates": [ -87.8267, 33.7034 ] } },
{ "type": "Feature", "properties": { "name": "McDonalds-Flomation,AL", "additional": "80 Hwy 113, Flomation,AL 36441", "phone": " (513) 582-7835", "services": " dt\/wifi" }, "geometry": { "type": "Point", "coordinates": [ -87.2531, 31.0271 ] } },
{ "type": "Feature", "properties": { "name": "McDonalds-Florence,AL", "additional": "1155 N Wood Ave, Florence,AL", "phone": " (256) 766-9550", "services": " dt\/wifi" }, "geometry": { "type": "Point", "coordinates": [ -87.6805, 34.8167 ] } },
{ "type": "Feature", "properties": { "name": "McDonalds PlayPlace-Florence,AL", "additional": "1505 Florence Blvd, Florence,AL", "phone": " (256) 766-4341", "services": " dt\/wifi" }, "geometry": { "type": "Point", "coordinates": [ -87.656, 34.8201 ] } },
{ "type": "Feature", "properties": { "name": "McDonalds-Florence,AL", "additional": "306 Cox Creek Pkwy, Florence,AL", "phone": " (256) 764-2800", "services": " dt\/wifi" }, "geometry": { "type": "Point", "coordinates": [ -87.6314, 34.8368 ] } },
{ "type": "Feature", "properties": { "name": "McDonalds PlayPlace-Florence,AL", "additional": "3183 Cloverdale Rd, Florence,AL", "phone": " (256) 740-6797", "services": " dt\/wifi" }, "geometry": { "type": "Point", "coordinates": [ -87.6903, 34.8485 ] } },
{ "type": "Feature", "properties": { "name": "McDonalds PlayPlace-Foley,AL", "additional": "1010 S McKenzie St, Foley,AL", "phone": " (251) 943-6960", "services": " dt\/wifi" }, "geometry": { "type": "Point", "coordinates": [ -87.6834, 30.3956 ] } },
{ "type": "Feature", "properties": { "name": "McDonalds-Foley,AL", "additional": "1295 Walk Magnolia Dr, Foley,AL 36535", "phone": " (251) 970-2121", "services": " dt\/wifi" }, "geometry": { "type": "Point", "coordinates": [ -87.6291, 30.3679 ] } },
{ "type": "Feature", "properties": { "name": "McDonalds [WM]-Foley,AL", "additional": "2200 S McKenzie St [WM], Foley,AL", "phone": " (251) 943-1717", "services": " none" }, "geometry": { "type": "Point", "coordinates": [ -87.6835, 30.3829 ] } },
{ "type": "Feature", "properties": { "name": "McDonalds PlayPlace-Fort Payne,AL", "additional": "205 Glenn Blvd Sw, Fort Payne,AL", "phone": " (256) 845-0127", "services": " dt\/wifi" }, "geometry": { "type": "Point", "coordinates": [ -85.7334, 34.4327 ] } },
{ "type": "Feature", "properties": { "name": "McDonalds-Fultondale,AL", "additional": "239 Howell St, Fultondale,AL", "phone": " (205) 841-0002", "services": " dt\/wifi" }, "geometry": { "type": "Point", "coordinates": [ -86.806, 33.6081 ] } },
{ "type": "Feature", "properties": { "name": "McDonalds-Gadsden,AL", "additional": "101 Enterprise Dr, Gadsden,AL 35901", "phone": " (256) 547-0393", "services": " dt\/wifi" }, "geometry": { "type": "Point", "coordinates": [ -86.0934, 33.9972 ] } },
{ "type": "Feature", "properties": { "name": "McDonalds-Gadsden,AL", "additional": "200 N 12th St, Gadsden,AL", "phone": " (256) 547-0393", "services": " dt\/wifi" }, "geometry": { "type": "Point", "coordinates": [ -86.0207, 34.0218 ] } },
{ "type": "Feature", "properties": { "name": "McDonalds-Gadsden,AL", "additional": "952 Rainbow Dr, Gadsden,AL", "phone": " (256) 547-0284", "services": " dt\/wifi" }, "geometry": { "type": "Point", "coordinates": [ -86.0042, 33.9986 ] } },
{ "type": "Feature", "properties": { "name": "McDonalds PlayPlace-Gardendale,AL", "additional": "1017 Decatur Hwy, Gardendale,AL", "phone": " (205) 631-5459", "services": " dt\/wifi" }, "geometry": { "type": "Point", "coordinates": [ -86.8099, 33.6523 ] } },
{ "type": "Feature", "properties": { "name": "McDonalds-Geneva,AL", "additional": "1205 W Maple Ave, Geneva,AL", "phone": " (334) 684-6409", "services": " dt\/wifi" }, "geometry": { "type": "Point", "coordinates": [ -85.8905, 31.048 ] } },
{ "type": "Feature", "properties": { "name": "McDonalds-Glencoe,AL", "additional": "616 Chastain Blvd W, Glencoe,AL", "phone": " (256) 492-7682", "services": " dt\/wifi" }, "geometry": { "type": "Point", "coordinates": [ -85.9416, 33.9653 ] } },
{ "type": "Feature", "properties": { "name": "McDonalds-Grand Bay,AL", "additional": "9200 Grand Bay Wilmer Rd, Grand Bay,AL", "phone": " (251) 865-2088", "services": " dt\/wifi" }, "geometry": { "type": "Point", "coordinates": [ -88.335, 30.499 ] } },
{ "type": "Feature", "properties": { "name": "McDonalds PlayPlace-Greensboro,AL", "additional": "1401 State St, Greensboro,AL", "phone": " (334) 624-5600", "services": " dt\/wifi" }, "geometry": { "type": "Point", "coordinates": [ -87.5929, 32.6986 ] } },
{ "type": "Feature", "properties": { "name": "McDonalds PlayPlace-Greenville,AL", "additional": "112 Greenville Byp, Greenville,AL", "phone": " (334) 382-2007", "services": " dt\/wifi" }, "geometry": { "type": "Point", "coordinates": [ -86.6266, 31.8475 ] } },
{ "type": "Feature", "properties": { "name": "McDonalds-Grove Hill,AL", "additional": "16455 Hwy 43, Grove Hill,AL 36451", "phone": " (251) 275-3737", "services": " dt\/wifi" }, "geometry": { "type": "Point", "coordinates": [ -87.7818, 31.6858 ] } },
{ "type": "Feature", "properties": { "name": "McDonalds-Gulf Shores,AL", "additional": "2000 Gulfshores Pky, Gulf Shores,AL", "phone": " (251) 967-3700", "services": " dt\/wifi" }, "geometry": { "type": "Point", "coordinates": [ -87.6871, 30.2739 ] } },
{ "type": "Feature", "properties": { "name": "McDonalds PlayPlace-Guntersville,AL", "additional": "1745 Gunter Ave, Guntersville,AL", "phone": " (256) 582-2805", "services": " dt\/wifi" }, "geometry": { "type": "Point", "coordinates": [ -86.3084, 34.3416 ] } },
{ "type": "Feature", "properties": { "name": "McDonalds-Haleyville,AL", "additional": "2006 11th Ave, Haleyville,AL", "phone": " (205) 486-5859", "services": " dt\/wifi" }, "geometry": { "type": "Point", "coordinates": [ -87.6216, 34.2268 ] } },
{ "type": "Feature", "properties": { "name": "McDonalds PlayPlace-Hamilton,AL", "additional": "1394 Military St S, Hamilton,AL", "phone": " (205) 921-4323", "services": " dt\/wifi" }, "geometry": { "type": "Point", "coordinates": [ -87.9901, 34.1239 ] } },
{ "type": "Feature", "properties": { "name": "McDonalds-Hanceville,AL", "additional": "740 N Main St, Hanceville,AL", "phone": " (256) 352-2120", "services": " dt\/wifi" }, "geometry": { "type": "Point", "coordinates": [ -86.7772, 34.0718 ] } },
{ "type": "Feature", "properties": { "name": "McDonalds-Hartselle,AL", "additional": "201 Highway 31 S, Hartselle,AL", "phone": " (256) 773-7760", "services": " dt\/wifi" }, "geometry": { "type": "Point", "coordinates": [ -86.9423, 34.4419 ] } },
{ "type": "Feature", "properties": { "name": "McDonalds-Harvest,AL", "additional": "5904 Hwy 53, Harvest,AL 35749", "phone": " (256) 851-5671", "services": " dt\/wifi" }, "geometry": { "type": "Point", "coordinates": [ -86.7133, 34.8468 ] } },
{ "type": "Feature", "properties": { "name": "McDonalds-Heflin,AL", "additional": "1816 Almon St, Heflin,AL 35264", "phone": " (256) 463-8888", "services": " dt\/wifi" }, "geometry": { "type": "Point", "coordinates": [ -85.5951, 33.6252 ] } },
{ "type": "Feature", "properties": { "name": "McDonalds PlayPlace-Helena,AL", "additional": "7210 Wyndham Pky, Helena,AL", "phone": " (205) 620-6679", "services": " dt\/wifi" }, "geometry": { "type": "Point", "coordinates": [ -86.8521, 33.2804 ] } },
{ "type": "Feature", "properties": { "name": "McDonalds-Henagar,AL", "additional": "8936 AL Hwy 40, Henagar,AL 35978", "phone": " (256) 657-3090", "services": " dt\/wifi" }, "geometry": { "type": "Point", "coordinates": [ -85.7527, 34.6245 ] } },
{ "type": "Feature", "properties": { "name": "McDonalds PlayPlace-Homewood,AL", "additional": "124 State Farm Pky, Homewood,AL", "phone": " (205) 917-3700", "services": " dt\/wifi" }, "geometry": { "type": "Point", "coordinates": [ -86.8213, 33.4514 ] } },
{ "type": "Feature", "properties": { "name": "McDonalds-Homewood,AL", "additional": "818 Green Springs Rd, Homewood,AL", "phone": " (205) 942-5681", "services": " dt\/wifi" }, "geometry": { "type": "Point", "coordinates": [ -86.8182, 33.4604 ] } },
{ "type": "Feature", "properties": { "name": "McDonalds-Hoover,AL", "additional": "1547 Montgomery Hwy, Hoover,AL", "phone": " (205) 979-2386", "services": " dt\/wifi" }, "geometry": { "type": "Point", "coordinates": [ -86.8063, 33.407 ] } },
{ "type": "Feature", "properties": { "name": "McDonalds PlayPlace-Hoover,AL", "additional": "1731 Montgomery Hwy S, Hoover,AL", "phone": " (205) 987-8263", "services": " dt\/wifi" }, "geometry": { "type": "Point", "coordinates": [ -86.8049, 33.38 ] } },
{ "type": "Feature", "properties": { "name": "McDonalds-Hoover,AL", "additional": "2000 Riverchase Galleria, Hoover,AL", "phone": " (205) 444-1405", "services": " none" }, "geometry": { "type": "Point", "coordinates": [ -86.811, 33.3786 ] } },
{ "type": "Feature", "properties": { "name": "McDonalds-Hoover,AL", "additional": "5170 Medford Dr, Hoover,AL 35226", "phone": " (205) 982-6741", "services": " dt\/wifi" }, "geometry": { "type": "Point", "coordinates": [ -86.8556, 33.3566 ] } },
{ "type": "Feature", "properties": { "name": "McDonalds-Hope Hull,AL", "additional": "40 Wasden Rd [I-65 & Hwy 31], Hope Hull,AL 36105", "phone": " (334) 280-4790", "services": " dt\/wifi" }, "geometry": { "type": "Point", "coordinates": [ -86.3572, 32.2705 ] } },
{ "type": "Feature", "properties": { "name": "McDonalds PlayPlace-Hueytown,AL", "additional": "3069 Allison Bonnett Memorial Dr, Hueytown,AL", "phone": " (205) 491-5951", "services": " dt\/wifi" }, "geometry": { "type": "Point", "coordinates": [ -86.9855, 33.4509 ] } },
{ "type": "Feature", "properties": { "name": "McDonalds-Huntsville,AL", "additional": "10031 S Memorial Pky, Huntsville,AL", "phone": " (256) 883-9050", "services": " dt\/wifi" }, "geometry": { "type": "Point", "coordinates": [ -86.5664, 34.644 ] } },
{ "type": "Feature", "properties": { "name": "McDonalds PlayPlace-Huntsville,AL", "additional": "1795 Us 72 E, Huntsville,AL", "phone": " (256) 859-1630", "services": " dt\/wifi" }, "geometry": { "type": "Point", "coordinates": [ -86.5263, 34.7731 ] } },
{ "type": "Feature", "properties": { "name": "McDonalds-Huntsville,AL", "additional": "2234 Winchester Rd Ne, Huntsville,AL", "phone": " (256) 382-2342", "services": " dt\/wifi" }, "geometry": { "type": "Point", "coordinates": [ -86.4865, 34.8204 ] } },
{ "type": "Feature", "properties": { "name": "McDonalds-Huntsville,AL", "additional": "2600 Memorial Pky Nw, Huntsville,AL", "phone": " (256) 852-5730", "services": " dt\/wifi" }, "geometry": { "type": "Point", "coordinates": [ -86.5923, 34.7579 ] } },
{ "type": "Feature", "properties": { "name": "McDonalds-Huntsville,AL", "additional": "2704 S Memorial Parkway, Huntsville,AL", "phone": " (256) 535-6064", "services": " dt\/wifi" }, "geometry": { "type": "Point", "coordinates": [ -86.5905, 34.7088 ] } },
{ "type": "Feature", "properties": { "name": "McDonalds-Huntsville,AL", "additional": "310 Governors Dr Se, Huntsville,AL", "phone": " (256) 534-1031", "services": " dt\/wifi" }, "geometry": { "type": "Point", "coordinates": [ -86.5746, 34.7195 ] } },
{ "type": "Feature", "properties": { "name": "McDonalds-Huntsville,AL", "additional": "4002 University Dr, Huntsville,AL", "phone": " (256) 837-3970", "services": " dt\/wifi" }, "geometry": { "type": "Point", "coordinates": [ -86.6276, 34.7352 ] } },
{ "type": "Feature", "properties": { "name": "McDonalds PlayPlace-Huntsville,AL", "additional": "4810 Whitesburg Dr S, Huntsville,AL", "phone": " (256) 880-3763", "services": " dt\/wifi" }, "geometry": { "type": "Point", "coordinates": [ -86.5684, 34.6938 ] } },
{ "type": "Feature", "properties": { "name": "McDonalds-Huntsville,AL", "additional": "6100 University Dr NW, Huntsville,AL", "phone": " (256) 895-0143", "services": " dt\/wifi" }, "geometry": { "type": "Point", "coordinates": [ -86.6746, 34.7436 ] } },
{ "type": "Feature", "properties": { "name": "McDonalds-Irondale,AL", "additional": "734 Grants Mill Rd, Irondale,AL", "phone": " (205) 956-3312", "services": " dt\/wifi" }, "geometry": { "type": "Point", "coordinates": [ -86.694, 33.5333 ] } },
{ "type": "Feature", "properties": { "name": "McDonalds-Irvington,AL", "additional": "8660 Hwy 188, Irvington,AL", "phone": " (251) 824-1810 ", "services": " dt\/wifi" }, "geometry": { "type": "Point", "coordinates": [ -88.2461, 30.4285 ] } },
{ "type": "Feature", "properties": { "name": "McDonalds PlayPlace-Jackson,AL", "additional": "2455 College Ave, Jackson,AL", "phone": " (251) 246-5044", "services": " dt\/wifi" }, "geometry": { "type": "Point", "coordinates": [ -87.8884, 31.5366 ] } },
{ "type": "Feature", "properties": { "name": "McDonalds-Jacksonville,AL", "additional": "312 Pelham Rd N, Jacksonville,AL", "phone": " (256) 435-1354", "services": " dt\/wifi" }, "geometry": { "type": "Point", "coordinates": [ -85.7614, 33.8165 ] } },
{ "type": "Feature", "properties": { "name": "McDonalds PlayPlace-Jasper,AL", "additional": "600 Hwy 78 East, Jasper,AL", "phone": " (205) 221-9777", "services": " dt\/wifi" }, "geometry": { "type": "Point", "coordinates": [ -87.2693, 33.8488 ] } },
{ "type": "Feature", "properties": { "name": "McDonalds-Jasper,AL", "additional": "83 Carl Cannon Blvd [Loves TC], Jasper,AL 35501", "phone": " (205) 221-4120", "services": " dt\/wifi" }, "geometry": { "type": "Point", "coordinates": [ -87.2424, 33.7909 ] } },
{ "type": "Feature", "properties": { "name": "McDonalds PlayPlace-Jemison,AL", "additional": "24712 Us Hwy 31, Jemison,AL", "phone": " (205) 688-1141", "services": " dt\/wifi" }, "geometry": { "type": "Point", "coordinates": [ -86.7435, 32.9596 ] } },
{ "type": "Feature", "properties": { "name": "McDonalds-Killen,AL", "additional": "1001 Hwy 72, Killen,AL", "phone": " (256) 757-4040", "services": " dt\/wifi" }, "geometry": { "type": "Point", "coordinates": [ -87.5551, 34.8558 ] } },
{ "type": "Feature", "properties": { "name": "McDonalds-Lake View [Woodstock],AL", "additional": "22183 Hwy 216 [Travel Center], Lake View,AL 35111", "phone": " (205) 477-5007", "services": " dt\/wifi" }, "geometry": { "type": "Point", "coordinates": [ -87.1029, 33.2801 ] } },
{ "type": "Feature", "properties": { "name": "McDonalds PlayPlace-Leeds,AL", "additional": "1724 Ashville Rd NE, Leeds,AL", "phone": " (205) 699-7080", "services": " dt\/wifi" }, "geometry": { "type": "Point", "coordinates": [ -86.5237, 33.5592 ] } },
{ "type": "Feature", "properties": { "name": "McDonalds-Lincoln,AL", "additional": "75280 Al Highway 77, Lincoln,AL", "phone": " (205) 763-0930", "services": " dt\/wifi" }, "geometry": { "type": "Point", "coordinates": [ -86.1252, 33.5875 ] } },
{ "type": "Feature", "properties": { "name": "McDonalds-Livingston,AL", "additional": "704 Hwy 28 West, Livingston,AL 35470", "phone": " (205) 652-1270", "services": " dt\/wifi" }, "geometry": { "type": "Point", "coordinates": [ -88.1859, 32.5839 ] } },
{ "type": "Feature", "properties": { "name": "McDonalds-Loxley,AL", "additional": "12593 N Hickory St, Loxley,AL", "phone": " (251) 964-4155", "services": " dt\/wifi" }, "geometry": { "type": "Point", "coordinates": [ -87.7607, 30.6421 ] } },
{ "type": "Feature", "properties": { "name": "McDonalds-Luverne,AL", "additional": "778 S Forest Ave, Luverne,AL", "phone": " (334) 335-5235", "services": " dt\/wifi" }, "geometry": { "type": "Point", "coordinates": [ -86.2647, 31.7048 ] } },
{ "type": "Feature", "properties": { "name": "McDonalds-Madison,AL", "additional": "11178 County Line Rd, Madison,AL 35758", "phone": " (256) 772-7766", "services": " dt\/wifi" }, "geometry": { "type": "Point", "coordinates": [ -86.7871, 34.7014 ] } },
{ "type": "Feature", "properties": { "name": "McDonalds PlayPlace-Madison,AL", "additional": "8005 Us 72 W, Madison,AL", "phone": " (256) 722-9584", "services": " dt\/wifi" }, "geometry": { "type": "Point", "coordinates": [ -86.7494, 34.7521 ] } },
{ "type": "Feature", "properties": { "name": "McDonalds PlayPlace-Madison,AL", "additional": "8841 Madison Blvd, Madison,AL", "phone": " (256) 772-0099", "services": " dt\/wifi" }, "geometry": { "type": "Point", "coordinates": [ -86.749, 34.6775 ] } },
{ "type": "Feature", "properties": { "name": "McDonalds PlayPlace-McCalla,AL", "additional": "4746 Eastern Valley Rd, McCalla,AL", "phone": " (205) 477-1003", "services": " dt\/wifi" }, "geometry": { "type": "Point", "coordinates": [ -87.0002, 33.3298 ] } },
{ "type": "Feature", "properties": { "name": "McDonalds PlayPlace-Meridianville,AL", "additional": "11895 Hwy 231\/431 North, Meridianville,AL 35759", "phone": " (256) 828-4555", "services": " dt\/wifi" }, "geometry": { "type": "Point", "coordinates": [ -86.5714, 34.8586 ] } },
{ "type": "Feature", "properties": { "name": "McDonalds-Midfield,AL", "additional": "11 Phillips Dr, Midfield,AL", "phone": " (205) 923-9802", "services": " dt\/wifi" }, "geometry": { "type": "Point", "coordinates": [ -86.9219, 33.4568 ] } },
{ "type": "Feature", "properties": { "name": "McDonalds-Millbrook,AL", "additional": "3755 Hwy 14, Millbrook,AL", "phone": " (334) 285-4554", "services": " dt\/wifi" }, "geometry": { "type": "Point", "coordinates": [ -86.372, 32.5191 ] } },
{ "type": "Feature", "properties": { "name": "McDonalds [WM]-Mobile,AL", "additional": "101 S Beltline Hwy [WM], Mobile,AL", "phone": " (251) 471-9003", "services": " none" }, "geometry": { "type": "Point", "coordinates": [ -88.1265, 30.6846 ] } },
{ "type": "Feature", "properties": { "name": "McDonalds-Mobile,AL", "additional": "1400 Hillcrest Rd, Mobile,AL", "phone": " (251) 607-0014", "services": " dt\/wifi" }, "geometry": { "type": "Point", "coordinates": [ -88.1908, 30.66 ] } },
{ "type": "Feature", "properties": { "name": "McDonalds-Mobile,AL", "additional": "2 Springdale Blvd, Mobile,AL", "phone": " (251) 471-1508", "services": " dt\/wifi" }, "geometry": { "type": "Point", "coordinates": [ -88.1236, 30.6886 ] } },
{ "type": "Feature", "properties": { "name": "McDonalds-Mobile,AL", "additional": "2291 St Stephens Rd, Mobile,AL", "phone": " (251) 452-1207", "services": " dt\/wifi" }, "geometry": { "type": "Point", "coordinates": [ -88.0839, 30.7213 ] } },
{ "type": "Feature", "properties": { "name": "McDonalds-Mobile,AL", "additional": "2415 Schillinger Rd S, Mobile,AL", "phone": " (251) 634-1378", "services": " dt\/wifi" }, "geometry": { "type": "Point", "coordinates": [ -88.2248, 30.6409 ] } },
{ "type": "Feature", "properties": { "name": "McDonalds [WM]-Mobile,AL", "additional": "2418 Dawes Rd [WM], Mobile,AL", "phone": " (251) 633-6147", "services": " none" }, "geometry": { "type": "Point", "coordinates": [ -88.248, 30.6409 ] } },
{ "type": "Feature", "properties": { "name": "McDonalds PlayPlace-Mobile,AL", "additional": "2692 Government Blvd, Mobile,AL", "phone": " (251) 471-5014", "services": " dt\/wifi" }, "geometry": { "type": "Point", "coordinates": [ -88.1068, 30.665 ] } },
{ "type": "Feature", "properties": { "name": "McDonalds-Mobile,AL", "additional": "281 Schillinger Rd, Mobile,AL", "phone": " (251) 633-7766", "services": " dt\/wifi" }, "geometry": { "type": "Point", "coordinates": [ -88.2253, 30.6869 ] } },
{ "type": "Feature", "properties": { "name": "McDonalds-Mobile,AL", "additional": "3116 Dauphin Island Pwky, Mobile,AL", "phone": " (251) 478-5390", "services": " dt\/wifi" }, "geometry": { "type": "Point", "coordinates": [ -88.0747, 30.6094 ] } },
{ "type": "Feature", "properties": { "name": "McDonalds-Mobile,AL", "additional": "3119 Moffet Rd, Mobile,AL", "phone": " (251) 473-3160", "services": " dt\/wifi" }, "geometry": { "type": "Point", "coordinates": [ -88.1135, 30.7007 ] } },
{ "type": "Feature", "properties": { "name": "McDonalds-Mobile,AL", "additional": "3213 Airport Blvd, Mobile,AL 36606", "phone": " (251) 471-9007", "services": " dt\/wifi" }, "geometry": { "type": "Point", "coordinates": [ -88.1202, 30.6761 ] } },
{ "type": "Feature", "properties": { "name": "McDonalds PlayPlace-Mobile,AL", "additional": "367 Azalea Rd, Mobile,AL", "phone": " (251) 344-5076", "services": " dt\/wifi" }, "geometry": { "type": "Point", "coordinates": [ -88.1496, 30.6709 ] } },
{ "type": "Feature", "properties": { "name": "McDonalds-Mobile,AL", "additional": "5003 Moffet Road, Mobile,AL", "phone": " (251) 342-1560", "services": " dt\/wifi" }, "geometry": { "type": "Point", "coordinates": [ -88.1575, 30.7201 ] } },
{ "type": "Feature", "properties": { "name": "McDonalds-Mobile,AL", "additional": "5019 Cottage Hill Rd, Mobile,AL", "phone": " (251) 661-5998", "services": " dt\/wifi" }, "geometry": { "type": "Point", "coordinates": [ -88.162, 30.6481 ] } },
{ "type": "Feature", "properties": { "name": "McDonalds-Mobile,AL", "additional": "5424 Hwy 90 W, Mobile,AL", "phone": " (251) 666-0261", "services": " dt\/wifi" }, "geometry": { "type": "Point", "coordinates": [ -88.1697, 30.5908 ] } },
{ "type": "Feature", "properties": { "name": "McDonalds-Mobile,AL", "additional": "5601 Old Shell Rd, Mobile,AL", "phone": " (251) 342-8172", "services": " dt\/wifi" }, "geometry": { "type": "Point", "coordinates": [ -88.1715, 30.6894 ] } },
{ "type": "Feature", "properties": { "name": "McDonalds-Mobile,AL", "additional": "658 Government Blvd, Mobile,AL", "phone": " (251) 433-8573", "services": " dt\/wifi" }, "geometry": { "type": "Point", "coordinates": [ -88.0499, 30.6876 ] } },
{ "type": "Feature", "properties": { "name": "McDonalds-Mobile,AL", "additional": "7749 Moffet Rd, Mobile,AL", "phone": " (251) 649-2215", "services": " dt\/wifi" }, "geometry": { "type": "Point", "coordinates": [ -88.0532, 30.6864 ] } },
{ "type": "Feature", "properties": { "name": "McDonalds-Mobile,AL", "additional": "9900 Airport Blvd, Mobile,AL 36608", "phone": " (251) 634-0833", "services": " dt\/wifi" }, "geometry": { "type": "Point", "coordinates": [ -88.2768, 30.6713 ] } },
{ "type": "Feature", "properties": { "name": "McDonalds PlayPlace-Monroeville,AL", "additional": "1511 S Alabama Ave, Monroeville,AL", "phone": " (251) 575-2929", "services": " dt\/wifi" }, "geometry": { "type": "Point", "coordinates": [ -87.3192, 31.5074 ] } },
{ "type": "Feature", "properties": { "name": "McDonalds-Montevallo,AL", "additional": "907 Main St, Montevallo,AL", "phone": " (205) 665-1335", "services": " dt\/wifi" }, "geometry": { "type": "Point", "coordinates": [ -86.8611, 33.1018 ] } },
{ "type": "Feature", "properties": { "name": "McDonalds PlayPlace-Montgomery,AL", "additional": "1590 Eastern Blvd, Montgomery,AL", "phone": " (334) 272-8908", "services": " dt\/wifi" }, "geometry": { "type": "Point", "coordinates": [ -86.2183, 32.3555 ] } },
{ "type": "Feature", "properties": { "name": "McDonalds-Montgomery,AL", "additional": "2212 Madison Ave, Montgomery,AL", "phone": " (334) 265-3615", "services": " dt\/wifi" }, "geometry": { "type": "Point", "coordinates": [ -86.2757, 32.3805 ] } },
{ "type": "Feature", "properties": { "name": "McDonalds-Montgomery,AL", "additional": "2601 Congressman Dickinson Dr, Montgomery,AL", "phone": " (334) 260-7975", "services": " dt\/wifi" }, "geometry": { "type": "Point", "coordinates": [ -86.2423, 32.3856 ] } },
{ "type": "Feature", "properties": { "name": "McDonalds-Montgomery,AL", "additional": "2621 E South Blvd, Montgomery,AL", "phone": " (334) 288-7558", "services": " dt\/wifi" }, "geometry": { "type": "Point", "coordinates": [ -86.2557, 32.3274 ] } },
{ "type": "Feature", "properties": { "name": "McDonalds-Montgomery,AL", "additional": "2681 Zelda Rd, Montgomery,AL", "phone": " (334) 263-9596", "services": " dt\/wifi" }, "geometry": { "type": "Point", "coordinates": [ -86.2688, 32.3642 ] } },
{ "type": "Feature", "properties": { "name": "McDonalds-Montgomery,AL", "additional": "2750 Taylor Rd, Montgomery,AL", "phone": " (334) 270-9878", "services": " dt\/wifi" }, "geometry": { "type": "Point", "coordinates": [ -86.1796, 32.3396 ] } },
{ "type": "Feature", "properties": { "name": "McDonalds-Montgomery,AL", "additional": "3450 Day St, Montgomery,AL", "phone": " (334) 834-4310", "services": " dt\/wifi" }, "geometry": { "type": "Point", "coordinates": [ -86.3455, 32.3693 ] } },
{ "type": "Feature", "properties": { "name": "McDonalds [WM]-Montgomery,AL", "additional": "3801 Eastern Blvd [WM], Montgomery,AL", "phone": " (334) 280-5727", "services": " wifi" }, "geometry": { "type": "Point", "coordinates": [ -86.2337, 32.3287 ] } },
{ "type": "Feature", "properties": { "name": "McDonalds PlayPlace-Montgomery,AL", "additional": "5765 Atlanta Hwy, Montgomery,AL", "phone": " (334) 277-0151", "services": " dt\/wifi" }, "geometry": { "type": "Point", "coordinates": [ -86.2002, 32.3826 ] } },
{ "type": "Feature", "properties": { "name": "McDonalds-Montgomery,AL", "additional": "700 W Fairview Ave, Montgomery,AL", "phone": " (334) 264-8814", "services": " dt\/wifi" }, "geometry": { "type": "Point", "coordinates": [ -86.3186, 32.3517 ] } },
{ "type": "Feature", "properties": { "name": "McDonalds PlayPlace-Montgomery,AL", "additional": "9145 Eastchase Pkwy [Hwy 80 & I 85], Montgomery,AL", "phone": " (334) 239-7883", "services": " dt\/wifi" }, "geometry": { "type": "Point", "coordinates": [ -86.1377, 32.3626 ] } },
{ "type": "Feature", "properties": { "name": "McDonalds PlayPlace-Montgomery,AL", "additional": "I-65 Exit 168 [935 W South Blvd], Montgomery,AL", "phone": " (334) 281-0635", "services": " dt\/wifi" }, "geometry": { "type": "Point", "coordinates": [ -86.3281, 32.3259 ] } },
{ "type": "Feature", "properties": { "name": "McDonalds-Moody,AL", "additional": "2625 Kelly Creek Rd South [Loves TC], Moody,AL 35004", "phone": " (205) 699-0736", "services": " dt\/wifi" }, "geometry": { "type": "Point", "coordinates": [ -86.4778, 33.5765 ] } },
{ "type": "Feature", "properties": { "name": "McDonalds-Moulton,AL", "additional": "11698 Al Hwy 157, Moulton,AL", "phone": " (256) 974-4526", "services": " dt\/wifi" }, "geometry": { "type": "Point", "coordinates": [ -87.2746, 34.4849 ] } },
{ "type": "Feature", "properties": { "name": "McDonalds-Muscle Shoals,AL", "additional": "1503 Woodward Ave, Muscle Shoals,AL", "phone": " (256) 381-2211", "services": " dt\/wifi" }, "geometry": { "type": "Point", "coordinates": [ -87.6673, 34.747 ] } },
{ "type": "Feature", "properties": { "name": "McDonalds-Northport,AL", "additional": "13516 Highway 43 N, Northport,AL", "phone": " (205) 330-2547", "services": " dt\/wifi" }, "geometry": { "type": "Point", "coordinates": [ -87.6011, 33.3046 ] } },
{ "type": "Feature", "properties": { "name": "McDonalds PlayPlace-Northport,AL", "additional": "2000 82 Bypass, Northport,AL", "phone": " (205) 339-8887", "services": " dt\/wifi" }, "geometry": { "type": "Point", "coordinates": [ -87.5781, 33.2398 ] } },
{ "type": "Feature", "properties": { "name": "McDonalds [WM]-Northport,AL", "additional": "5710 McFarland Blvd [WM], Northport,AL", "phone": " (205) 339-9881", "services": " none" }, "geometry": { "type": "Point", "coordinates": [ -87.6125, 33.2356 ] } },
{ "type": "Feature", "properties": { "name": "McDonalds PlayPlace-Oneonta,AL", "additional": "718 2nd Ave E, Oneonta,AL", "phone": " (205) 274-8700", "services": " dt\/wifi" }, "geometry": { "type": "Point", "coordinates": [ -86.4706, 33.9496 ] } },
{ "type": "Feature", "properties": { "name": "McDonalds-Opelika,AL", "additional": "1104 Columbus Pky, Opelika,AL", "phone": " (334) 749-5648", "services": " dt\/wifi" }, "geometry": { "type": "Point", "coordinates": [ -85.3512, 32.6437 ] } },
{ "type": "Feature", "properties": { "name": "McDonalds-Opelika,AL", "additional": "2057 Tiger Town Pkwy, Opelika,AL 36801", "phone": " (334) 745-0200", "services": " dt\/wifi" }, "geometry": { "type": "Point", "coordinates": [ -85.4048, 32.62 ] } },
{ "type": "Feature", "properties": { "name": "McDonalds [WM]-Opelika,AL", "additional": "2900 Pepperell Pky [WM], Opelika,AL", "phone": " (334) 741-7097", "services": " wifi" }, "geometry": { "type": "Point", "coordinates": [ -85.4208, 32.6357 ] } },
{ "type": "Feature", "properties": { "name": "McDonalds-Orange Beach,AL", "additional": "4511 Orange Beach, Orange Beach,AL", "phone": " (251) 974-2663", "services": " dt\/wifi" }, "geometry": { "type": "Point", "coordinates": [ -87.5825, 30.2918 ] } },
{ "type": "Feature", "properties": { "name": "McDonalds PlayPlace-Owens Cross Roads,AL", "additional": "6711 Hwy 431 S, Owens Cross Roads,AL", "phone": " (256) 539-1013", "services": " dt\/wifi" }, "geometry": { "type": "Point", "coordinates": [ -86.4821, 34.6582 ] } },
{ "type": "Feature", "properties": { "name": "McDonalds-Oxford,AL", "additional": "1015 Hwy 21 S,Oxford,AL", "phone": " (256) 831-7561", "services": " dt\/wifi" }, "geometry": { "type": "Point", "coordinates": [ -85.828, 33.6084 ] } },
{ "type": "Feature", "properties": { "name": "McDonalds-Ozark,AL", "additional": "1001 N US Hwy 231, Ozark,AL", "phone": " (334) 774-4996", "services": " dt\/wifi" }, "geometry": { "type": "Point", "coordinates": [ -85.6432, 31.4583 ] } },
{ "type": "Feature", "properties": { "name": "McDonalds-Pelham,AL", "additional": "580 Cahaba Valley Rd, Pelham,AL", "phone": " (205) 988-0882", "services": " dt\/wifi" }, "geometry": { "type": "Point", "coordinates": [ -86.7867, 33.3349 ] } },
{ "type": "Feature", "properties": { "name": "McDonalds-Pell City,AL", "additional": "600 Martin St N, Pell City,AL", "phone": " (205) 338-1616", "services": " dt\/wifi" }, "geometry": { "type": "Point", "coordinates": [ -86.2826, 33.5937 ] } },
{ "type": "Feature", "properties": { "name": "McDonalds PlayPlace-Phenix City,AL", "additional": "1134 280 Byp, Phenix City,AL", "phone": " (334) 298-2439", "services": " dt\/wifi" }, "geometry": { "type": "Point", "coordinates": [ -85.0282, 32.4696 ] } },
{ "type": "Feature", "properties": { "name": "McDonalds-Phenix City,AL", "additional": "1801 Stadium Dr, Phenix City,AL", "phone": " (334) 297-1112", "services": " dt\/wifi" }, "geometry": { "type": "Point", "coordinates": [ -85.0169, 32.4978 ] } },
{ "type": "Feature", "properties": { "name": "McDonalds PlayPlace-Phenix City,AL", "additional": "3709 Hwy 280\/431N, Phenix City,AL", "phone": " (334) 448-9769", "services": " dt\/wifi" }, "geometry": { "type": "Point", "coordinates": [ -85.0445, 32.4976 ] } },
{ "type": "Feature", "properties": { "name": "McDonalds PlayPlace-Phenix City,AL", "additional": "3915 Us Highway 80 W, Phenix City,AL", "phone": " (334) 664-0064", "services": " dt\/wifi" }, "geometry": { "type": "Point", "coordinates": [ -85.0931, 32.4697 ] } },
{ "type": "Feature", "properties": { "name": "McDonalds PlayPlace-Piedmont,AL", "additional": "111 US Hwy 278 Byp, Piedmont,AL", "phone": " (256) 447-6363", "services": " dt\/wifi" }, "geometry": { "type": "Point", "coordinates": [ -85.6097, 33.9338 ] } },
{ "type": "Feature", "properties": { "name": "McDonalds-Pinson,AL", "additional": "6639 Hwy 151, Pinson,AL", "phone": " (205) 680-4100", "services": " dt\/wifi" }, "geometry": { "type": "Point", "coordinates": [ -86.6836, 33.6957 ] } },
{ "type": "Feature", "properties": { "name": "McDonalds-Prattville,AL", "additional": "2573 Cobbs Ford Rd, Prattville,AL", "phone": " (334) 285-4010", "services": " dt\/wifi" }, "geometry": { "type": "Point", "coordinates": [ -86.39, 32.4605 ] } },
{ "type": "Feature", "properties": { "name": "McDonalds-Prattville,AL", "additional": "290 Interstate Commercial Park Loop, Prattville,AL 36066", "phone": " (334) 365-1080", "services": " dt\/wifi" }, "geometry": { "type": "Point", "coordinates": [ -86.4117, 32.4861 ] } },
{ "type": "Feature", "properties": { "name": "McDonalds PlayPlace-Prattville,AL", "additional": "720 S Memorial Dr, Prattville,AL", "phone": " (334) 365-0838", "services": " dt\/wifi" }, "geometry": { "type": "Point", "coordinates": [ -86.4508, 32.4595 ] } },
{ "type": "Feature", "properties": { "name": "McDonalds-Prichard,AL", "additional": "2963 St Stephens Rd, Prichard,AL", "phone": " (251) 452-4836", "services": " dt\/wifi" }, "geometry": { "type": "Point", "coordinates": [ -88.1113, 30.7452 ] } },
{ "type": "Feature", "properties": { "name": "McDonalds-Rainsville,AL", "additional": "32 Main St W, Rainsville,AL", "phone": " (256) 638-1177", "services": " dt\/wifi" }, "geometry": { "type": "Point", "coordinates": [ -85.847, 34.4937 ] } },
{ "type": "Feature", "properties": { "name": "McDonalds-Red Bay,AL", "additional": "606 4th Ave Se, Red Bay,AL", "phone": " (256) 356-2911", "services": " dt\/wifi" }, "geometry": { "type": "Point", "coordinates": [ -88.1381, 34.439 ] } },
{ "type": "Feature", "properties": { "name": "McDonalds PlayPlace-Roanoke,AL", "additional": "111 Rock Mills Rd, Roanoke,AL", "phone": " (334) 863-4000", "services": " dt\/wifi" }, "geometry": { "type": "Point", "coordinates": [ -85.3593, 33.152 ] } },
{ "type": "Feature", "properties": { "name": "McDonalds-Robertsdale,AL", "additional": "18515 Media Dr, Robertsdale,AL 36567", "phone": " (251) 947-9406", "services": " dt\/wifi" }, "geometry": { "type": "Point", "coordinates": [ -87.7082, 30.5425 ] } },
{ "type": "Feature", "properties": { "name": "McDonalds-Rogersville,AL", "additional": "101 Highway 72 E, Rogersville,AL", "phone": " (256) 247-3330", "services": " dt\/wifi" }, "geometry": { "type": "Point", "coordinates": [ -87.294, 34.8239 ] } },
{ "type": "Feature", "properties": { "name": "McDonalds-Russellville,AL", "additional": "15254 Highway 43, Russellville,AL", "phone": " (256) 332-6564", "services": " dt\/wifi" }, "geometry": { "type": "Point", "coordinates": [ -87.7173, 34.5121 ] } },
{ "type": "Feature", "properties": { "name": "McDonalds PlayPlace-Saraland,AL", "additional": "1024 Hwy 43 S, Saraland,AL", "phone": " (251) 675-2304", "services": " dt\/wifi" }, "geometry": { "type": "Point", "coordinates": [ -88.094, 30.8313 ] } },
{ "type": "Feature", "properties": { "name": "McDonalds [WM]-Saraland,AL", "additional": "1095 Industrial Blvd [WM], Saraland,AL", "phone": " (251) 675-5199", "services": " wifi" }, "geometry": { "type": "Point", "coordinates": [ -88.1016, 30.802 ] } },
{ "type": "Feature", "properties": { "name": "McDonalds-Satsuma,AL", "additional": "6103 Hwy 43 N, Satsuma,AL", "phone": " (251) 679-6709", "services": " dt\/wifi" }, "geometry": { "type": "Point", "coordinates": [ -88.0462, 30.8712 ] } },
{ "type": "Feature", "properties": { "name": "McDonalds PlayPlace-Scottsboro,AL", "additional": "22943 John T Reid Pkwy, Scottsboro,AL", "phone": " (256) 259-2660", "services": " dt\/wifi" }, "geometry": { "type": "Point", "coordinates": [ -86.0315, 34.6484 ] } },
{ "type": "Feature", "properties": { "name": "McDonalds [WM]-Selma,AL", "additional": "1501 Al 14 E [WM], Selma,AL", "phone": " (334) 874-4496", "services": " none" }, "geometry": { "type": "Point", "coordinates": [ -87.0034, 32.4317 ] } },
{ "type": "Feature", "properties": { "name": "McDonalds PlayPlace-Selma,AL", "additional": "600 Highland Ave, Selma,AL", "phone": " (334) 874-9122", "services": " dt\/wifi" }, "geometry": { "type": "Point", "coordinates": [ -87.0322, 32.4311 ] } },
{ "type": "Feature", "properties": { "name": "McDonalds PlayPlace-Shawmut,AL", "additional": "2920 20th Ave, Shawmut,AL", "phone": " (334) 768-2525", "services": " dt\/wifi" }, "geometry": { "type": "Point", "coordinates": [ -85.1828, 32.8458 ] } },
{ "type": "Feature", "properties": { "name": "McDonalds PlayPlace-Sheffield,AL", "additional": "4201 N Jackson Hwy, Sheffield,AL", "phone": " (256) 383-2726", "services": " dt\/wifi" }, "geometry": { "type": "Point", "coordinates": [ -87.6693, 34.774 ] } },
{ "type": "Feature", "properties": { "name": "McDonalds-Shorter,AL", "additional": "431 N Main St [Loves TC], Shorter,AL 36075", "phone": " (334) 724-0180", "services": " dt\/wifi" }, "geometry": { "type": "Point", "coordinates": [ -85.9562, 32.4044 ] } },
{ "type": "Feature", "properties": { "name": "McDonalds PlayPlace-Southside,AL", "additional": "2070 Highway 77, Southside,AL", "phone": " (256) 442-2811", "services": " dt\/wifi" }, "geometry": { "type": "Point", "coordinates": [ -86.0225, 33.9233 ] } },
{ "type": "Feature", "properties": { "name": "McDonalds-Springville,AL", "additional": "431 Marietta Rd, Springville,AL", "phone": " (205) 467-2054", "services": " dt\/wifi" }, "geometry": { "type": "Point", "coordinates": [ -86.4673, 33.7691 ] } },
{ "type": "Feature", "properties": { "name": "McDonalds-Stevenson,AL", "additional": "43151 Us 72, Stevenson,AL", "phone": " (256) 437-3148", "services": " dt\/wifi" }, "geometry": { "type": "Point", "coordinates": [ -85.8124, 34.874 ] } },
{ "type": "Feature", "properties": { "name": "McDonalds PlayPlace-Sylacauga,AL", "additional": "701 W Fort Williams St, Sylacauga,AL", "phone": " (256) 249-4611", "services": " dt\/wifi" }, "geometry": { "type": "Point", "coordinates": [ -86.261, 33.1672 ] } },
{ "type": "Feature", "properties": { "name": "McDonalds-Talladega,AL", "additional": "110 Haynes St, Talladega,AL", "phone": " (256) 362-2448", "services": " dt\/wifi" }, "geometry": { "type": "Point", "coordinates": [ -86.0832, 33.4406 ] } },
{ "type": "Feature", "properties": { "name": "McDonalds PlayPlace-Tallassee,AL", "additional": "14 Gilmer Ave, Tallassee,AL", "phone": " (334) 283-3991", "services": " dt\/wifi" }, "geometry": { "type": "Point", "coordinates": [ -85.8989, 32.5374 ] } },
{ "type": "Feature", "properties": { "name": "McDonalds-Tarrant City,AL", "additional": "2116 Pinson Valley Pkwy, Tarrant City,AL", "phone": " (205) 849-5577", "services": " dt\/wifi" }, "geometry": { "type": "Point", "coordinates": [ -86.7656, 33.5896 ] } },
{ "type": "Feature", "properties": { "name": "McDonalds-Theodore,AL", "additional": "5827 Hwy 90 W, Theodore,AL", "phone": " (251) 653-5225", "services": " dt\/wifi" }, "geometry": { "type": "Point", "coordinates": [ -88.1714, 30.5535 ] } },
{ "type": "Feature", "properties": { "name": "McDonalds-Theodore,AL", "additional": "7040 Theodore Dawes Rd, Theodore,AL", "phone": " (251) 653-7099", "services": " dt\/wifi" }, "geometry": { "type": "Point", "coordinates": [ -88.2067, 30.5606 ] } },
{ "type": "Feature", "properties": { "name": "McDonalds PlayPlace-Thomasville,AL", "additional": "33311 Hwy 43, Thomasville,AL", "phone": " (334) 636-9788", "services": " dt\/wifi" }, "geometry": { "type": "Point", "coordinates": [ -87.7396, 31.9258 ] } },
{ "type": "Feature", "properties": { "name": "McDonalds PlayPlace-Troy,AL", "additional": "1126 US 231 Bypass, Troy,AL", "phone": " (334) 566-5874", "services": " dt\/wifi" }, "geometry": { "type": "Point", "coordinates": [ -85.9444, 31.8317 ] } },
{ "type": "Feature", "properties": { "name": "McDonalds PlayPlace-Trussville,AL", "additional": "1111 N Chalkville Rd, Trussville,AL", "phone": " (205) 655-2334", "services": " dt\/wifi" }, "geometry": { "type": "Point", "coordinates": [ -86.614, 33.6396 ] } },
{ "type": "Feature", "properties": { "name": "McDonalds-Trussville,AL", "additional": "1960 Edwards Lake Rd, Trussville,AL", "phone": " (205) 661-9282", "services": " dt\/wifi" }, "geometry": { "type": "Point", "coordinates": [ -86.6479, 33.5967 ] } },
{ "type": "Feature", "properties": { "name": "McDonalds-Tuscaloosa,AL", "additional": "2502 12th St, Tuscaloosa,AL", "phone": " (205) 752-4813", "services": " dt\/wifi" }, "geometry": { "type": "Point", "coordinates": [ -87.5672, 33.2028 ] } },
{ "type": "Feature", "properties": { "name": "McDonalds-Tuscaloosa,AL", "additional": "4222 University Blvd E, Tuscaloosa,AL", "phone": " (205) 553-8030", "services": " dt\/wifi" }, "geometry": { "type": "Point", "coordinates": [ -87.4794, 33.1975 ] } },
{ "type": "Feature", "properties": { "name": "McDonalds PlayPlace-Tuscaloosa,AL", "additional": "4711 Mcfarland Blvd E, Tuscaloosa,AL", "phone": " (205) 752-1212", "services": " dt\/wifi" }, "geometry": { "type": "Point", "coordinates": [ -87.5254, 33.1652 ] } },
{ "type": "Feature", "properties": { "name": "McDonalds-Tuscaloosa,AL", "additional": "4840 Rice Mine RD NE, Tuscaloosa,AL", "phone": " (205) 345-0045", "services": " dt\/wifi" }, "geometry": { "type": "Point", "coordinates": [ -87.5157, 33.2618 ] } },
{ "type": "Feature", "properties": { "name": "McDonalds-Tuscaloosa,AL", "additional": "521 15th St E, Tuscaloosa,AL", "phone": " (205) 759-4561", "services": " dt\/wifi" }, "geometry": { "type": "Point", "coordinates": [ -87.5299, 33.1974 ] } },
{ "type": "Feature", "properties": { "name": "McDonalds PlayPlace-Tuscaloosa,AL", "additional": "6701 Al Hwy 69 S, Tuscaloosa,AL", "phone": " (205) 349-5371", "services": " dt\/wifi" }, "geometry": { "type": "Point", "coordinates": [ -87.544, 33.1467 ] } },
{ "type": "Feature", "properties": { "name": "McDonalds-Tuscumbia,AL", "additional": "2048 Hwy 20 [Loves TC], Tuscumbia,AL 35674", "phone": " (256) 381-8612", "services": " dt\/wifi" }, "geometry": { "type": "Point", "coordinates": [ -87.6355, 34.6972 ] } },
{ "type": "Feature", "properties": { "name": "McDonalds-Tuscumbia,AL", "additional": "State Hwy 43 South 157\/72, Tuscumbia,AL", "phone": " (256) 314-1411", "services": " dt\/wifi" }, "geometry": { "type": "Point", "coordinates": [ -87.6688, 34.7127 ] } },
{ "type": "Feature", "properties": { "name": "McDonalds-Tuskegee,AL", "additional": "401 W Martin Luther King Hwy, Tuskegee,AL", "phone": " (334) 727-7157", "services": " dt\/wifi" }, "geometry": { "type": "Point", "coordinates": [ -85.6936, 32.4217 ] } },
{ "type": "Feature", "properties": { "name": "McDonalds-Union Springs,AL", "additional": "201 Conecuh Ave E, Union Springs,AL", "phone": " (334) 738-5811", "services": " dt\/wifi" }, "geometry": { "type": "Point", "coordinates": [ -85.7132, 32.1463 ] } },
{ "type": "Feature", "properties": { "name": "McDonalds-Vernon,AL", "additional": "44345 Highway 17, Vernon,AL", "phone": " (205) 695-0752", "services": " dt\/wifi" }, "geometry": { "type": "Point", "coordinates": [ -88.1098, 33.7538 ] } },
{ "type": "Feature", "properties": { "name": "McDonalds-Vestavia Hills,AL", "additional": "2427 Acton Rd, Vestavia Hills,AL", "phone": " (205) 979-8001", "services": " dt\/wifi" }, "geometry": { "type": "Point", "coordinates": [ -86.7625, 33.4111 ] } },
{ "type": "Feature", "properties": { "name": "McDonalds-Vestavia Hills,AL", "additional": "707 Montgomery Hwy, Vestavia Hills,AL", "phone": " (205) 979-1132", "services": " dt\/wifi" }, "geometry": { "type": "Point", "coordinates": [ -86.7904, 33.4462 ] } },
{ "type": "Feature", "properties": { "name": "McDonalds PlayPlace-Warrior,AL", "additional": "100 Cane Creek Rd, Warrior,AL", "phone": " (205) 590-1183", "services": " dt\/wifi" }, "geometry": { "type": "Point", "coordinates": [ -86.8159, 33.809 ] } },
{ "type": "Feature", "properties": { "name": "McDonalds-Wetumpka,AL", "additional": "5426 Us 231, Wetumpka,AL", "phone": " (334) 567-7732", "services": " dt\/wifi" }, "geometry": { "type": "Point", "coordinates": [ -86.2101, 32.5201 ] } },
{ "type": "Feature", "properties": { "name": "McDonalds PlayPlace-Winfield,AL", "additional": "2300 US Hwy 23, Winfield,AL", "phone": " (205) 487-3110", "services": " dt\/wifi" }, "geometry": { "type": "Point", "coordinates": [ -87.8166, 33.9286 ] } },
{ "type": "Feature", "properties": { "name": "McDonalds-Alma,AR", "additional": "247 Highway 71 N, Alma,AR", "phone": " (479) 632-5284", "services": " dt\/wifi" }, "geometry": { "type": "Point", "coordinates": [ -94.2263, 35.4864 ] } },
{ "type": "Feature", "properties": { "name": "McDonalds-Arkadelphia,AR", "additional": "3114 Pine St, Arkadelphia,AR", "phone": " (870) 246-2443", "services": " dt\/wifi" }, "geometry": { "type": "Point", "coordinates": [ -93.0951, 34.1179 ] } },
{ "type": "Feature", "properties": { "name": "McDonalds [WM]-Ash Flat,AR", "additional": "Hwy 62\/412 [WM], Ash Flat,AR", "phone": " (870) 994-7818", "services": " wifi" }, "geometry": { "type": "Point", "coordinates": [ -91.5912, 36.2452 ] } },
{ "type": "Feature", "properties": { "name": "McDonalds-Ashdown,AR", "additional": "1260 S Constitution Ave, Ashdown,AR", "phone": " (870) 898-2357", "services": " dt\/wifi" }, "geometry": { "type": "Point", "coordinates": [ -94.1163, 33.6591 ] } },
{ "type": "Feature", "properties": { "name": "McDonalds-Atkins,AR", "additional": "1202 N Church St, Atkins,AR", "phone": " (479) 641-1177", "services": " dt\/wifi" }, "geometry": { "type": "Point", "coordinates": [ -92.9373, 35.2544 ] } },
{ "type": "Feature", "properties": { "name": "McDonalds-Bald Knob,AR", "additional": "3715 Hwy 367 N, Bald Knob,AR", "phone": " (501) 724-9942", "services": " dt\/wifi" }, "geometry": { "type": "Point", "coordinates": [ -91.4825, 35.3866 ] } },
{ "type": "Feature", "properties": { "name": "McDonalds PlayPlace-Batesville,AR", "additional": "1220 S Saint Louis St, Batesville,AR", "phone": " (870) 793-1130", "services": " dt\/wifi" }, "geometry": { "type": "Point", "coordinates": [ -91.6409, 35.7681 ] } },
{ "type": "Feature", "properties": { "name": "McDonalds-Beebe,AR", "additional": "2415 W Center St, Beebe,AR", "phone": " (501) 882-2323", "services": " dt\/wifi" }, "geometry": { "type": "Point", "coordinates": [ -91.9086, 35.0685 ] } },
{ "type": "Feature", "properties": { "name": "McDonalds PlayPlace-Benton,AR", "additional": "1023 Military Rd, Benton,AR", "phone": " (501) 315-1140", "services": " dt\/wifi" }, "geometry": { "type": "Point", "coordinates": [ -92.5811, 34.5729 ] } },
{ "type": "Feature", "properties": { "name": "McDonalds-Benton,AR", "additional": "20726 Interstate 30, Benton,AR", "phone": " (501) 794-1097", "services": " dt\/wifi" }, "geometry": { "type": "Point", "coordinates": [ -92.5353, 34.6057 ] } },
{ "type": "Feature", "properties": { "name": "McDonalds-Benton,AR", "additional": "4720 Hwy 67, Benton,AR", "phone": " (501) 860-7831", "services": " dt\/wifi" }, "geometry": { "type": "Point", "coordinates": [ -92.6343, 34.5403 ] } },
{ "type": "Feature", "properties": { "name": "McDonalds-Bentonville,AR", "additional": "1401 Phyllis St, Bentonville,AR", "phone": " (479) 271-0088", "services": " dt\/wifi" }, "geometry": { "type": "Point", "coordinates": [ -94.1789, 36.3602 ] } },
{ "type": "Feature", "properties": { "name": "McDonalds PlayPlace-Bentonville,AR", "additional": "201 S Walton Blvd, Bentonville,AR", "phone": " (501) 273-7705", "services": " dt\/wifi" }, "geometry": { "type": "Point", "coordinates": [ -94.2214, 36.3716 ] } },
{ "type": "Feature", "properties": { "name": "McDonalds-Bentonville,AR", "additional": "3805 US 71 Hwy, Bentonville,AR", "phone": " (479) 254-1118", "services": " dt\/wifi" }, "geometry": { "type": "Point", "coordinates": [ -94.1813, 36.3858 ] } },
{ "type": "Feature", "properties": { "name": "McDonalds-Bentonville,AR", "additional": "805 SW Regional Airport Blvd, Bentonville,AR 72712", "phone": " (479) 273-1400", "services": " dt\/wifi" }, "geometry": { "type": "Point", "coordinates": [ -94.2195, 36.3357 ] } },
{ "type": "Feature", "properties": { "name": "McDonalds-Berryville,AR", "additional": "Hwy 62 W, Berryville,AR", "phone": " (870) 423-5353", "services": " dt\/wifi" }, "geometry": { "type": "Point", "coordinates": [ -93.5853, 36.3777 ] } },
{ "type": "Feature", "properties": { "name": "McDonalds PlayPlace-Blytheville,AR", "additional": "1031 E Main St, Blytheville,AR", "phone": " (870) 763-3424", "services": " dt\/wifi" }, "geometry": { "type": "Point", "coordinates": [ -89.8931, 35.9273 ] } },
{ "type": "Feature", "properties": { "name": "McDonalds-Blytheville,AR", "additional": "3703 S Division St, Blytheville,AR", "phone": " (870) 776-1307", "services": " dt\/wifi" }, "geometry": { "type": "Point", "coordinates": [ -89.9186, 35.8894 ] } },
{ "type": "Feature", "properties": { "name": "McDonalds-Booneville,AR", "additional": "110 E Main St, Booneville,AR", "phone": " (479) 675-9265", "services": " dt\/wifi" }, "geometry": { "type": "Point", "coordinates": [ -93.9203, 35.1399 ] } },
{ "type": "Feature", "properties": { "name": "McDonalds-Brinkley,AR", "additional": "1406 N Main St, Brinkley,AR", "phone": " (870) 734-1410", "services": " dt\/wifi" }, "geometry": { "type": "Point", "coordinates": [ -91.198, 34.9039 ] } },
{ "type": "Feature", "properties": { "name": "McDonalds PlayPlace-Bryant,AR", "additional": "2214 N Reynolds Rd, Bryant,AR", "phone": " (501) 847-5367", "services": " dt\/wifi" }, "geometry": { "type": "Point", "coordinates": [ -92.4978, 34.6137 ] } },
{ "type": "Feature", "properties": { "name": "McDonalds PlayPlace-Cabot,AR", "additional": "1001 W Main St, Cabot,AR", "phone": " (501) 843-5559", "services": " dt\/wifi" }, "geometry": { "type": "Point", "coordinates": [ -92.025, 34.976 ] } },
{ "type": "Feature", "properties": { "name": "McDonalds [WM]-Cabot,AR", "additional": "304 S Rockwood Drive [WM], Cabot,AR", "phone": " (501) 941-0152", "services": " none" }, "geometry": { "type": "Point", "coordinates": [ -92.0374, 34.978 ] } },
{ "type": "Feature", "properties": { "name": "McDonalds-Cabot,AR", "additional": "3195 Bill Foster Memorial Hwy, Cabot,AR", "phone": " (501) 843-5111", "services": " dt\/wifi" }, "geometry": { "type": "Point", "coordinates": [ -91.9594, 34.9375 ] } },
{ "type": "Feature", "properties": { "name": "McDonalds-Caddo Valley,AR", "additional": "145 Valley St, Caddo Valley,AR", "phone": " (870) 246-7449", "services": " dt\/wifi" }, "geometry": { "type": "Point", "coordinates": [ -93.0708, 34.1829 ] } },
{ "type": "Feature", "properties": { "name": "McDonalds-Camden,AR", "additional": "900 California Ave SW, Camden,AR", "phone": " (870) 836-6666", "services": " dt\/wifi" }, "geometry": { "type": "Point", "coordinates": [ -92.8393, 33.5688 ] } },
{ "type": "Feature", "properties": { "name": "McDonalds-Centerton,AR", "additional": "101 E Centerton Blvd, Centerton,AR", "phone": " (479) 795-8333", "services": " dt\/wifi" }, "geometry": { "type": "Point", "coordinates": [ -94.2848, 36.3583 ] } },
{ "type": "Feature", "properties": { "name": "McDonalds PlayPlace-Clarksville,AR", "additional": "1232 S Rogers St, Clarksville,AR", "phone": " (479) 754-6369", "services": " dt\/wifi" }, "geometry": { "type": "Point", "coordinates": [ -93.4654, 35.4526 ] } },
{ "type": "Feature", "properties": { "name": "McDonalds-Clinton,AR", "additional": "395 Highway 65 N, Clinton,AR", "phone": " (501) 745-6600", "services": " dt\/wifi" }, "geometry": { "type": "Point", "coordinates": [ -92.4574, 35.5955 ] } },
{ "type": "Feature", "properties": { "name": "McDonalds-Conway,AR", "additional": "1440 Dave Ward Drive, Conway,AR", "phone": " (501) 327-9000", "services": " dt\/wifi" }, "geometry": { "type": "Point", "coordinates": [ -92.4402, 35.0671 ] } },
{ "type": "Feature", "properties": { "name": "McDonalds-Conway,AR", "additional": "220 E Oak St, Conway,AR", "phone": " (501) 327-2117", "services": " dt\/wifi" }, "geometry": { "type": "Point", "coordinates": [ -92.4267, 35.0917 ] } },
{ "type": "Feature", "properties": { "name": "McDonalds-Conway,AR", "additional": "450 Highway 65 N, Conway,AR", "phone": " (501) 329-4040", "services": " dt\/wifi" }, "geometry": { "type": "Point", "coordinates": [ -92.4323, 35.1123 ] } },
{ "type": "Feature", "properties": { "name": "McDonalds-Conway,AR", "additional": "705 Salem Rd, Conway,AR", "phone": " (501) 327-0444", "services": " dt\/wifi" }, "geometry": { "type": "Point", "coordinates": [ -92.4717, 35.0879 ] } },
{ "type": "Feature", "properties": { "name": "McDonalds-Corning,AR", "additional": "201 N Missouri Ave, Corning,AR", "phone": " (870) 857-3050", "services": " dt\/wifi" }, "geometry": { "type": "Point", "coordinates": [ -95.2297, 40.1439 ] } },
{ "type": "Feature", "properties": { "name": "McDonalds PlayPlace-Crossett,AR", "additional": "105 Unity Rd, Crossett,AR", "phone": " (870) 364-9600", "services": " dt\/wifi" }, "geometry": { "type": "Point", "coordinates": [ -91.9626, 33.1176 ] } },
{ "type": "Feature", "properties": { "name": "McDonalds-Dardanelle,AR", "additional": "611 Union St, Dardanelle,AR", "phone": " (479) 229-9804", "services": " dt\/wifi" }, "geometry": { "type": "Point", "coordinates": [ -93.1626, 35.2212 ] } },
{ "type": "Feature", "properties": { "name": "McDonalds PlayPlace-De Queen,AR", "additional": "606 E Collin Raye Dr, De Queen,AR", "phone": " (870) 642-2700", "services": " dt\/wifi" }, "geometry": { "type": "Point", "coordinates": [ -94.3278, 34.0454 ] } },
{ "type": "Feature", "properties": { "name": "McDonalds-Dumas,AR", "additional": "601 Highway 65 S, Dumas,AR", "phone": " (870) 382-2800", "services": " dt\/wifi" }, "geometry": { "type": "Point", "coordinates": [ -91.4834, 33.8835 ] } },
{ "type": "Feature", "properties": { "name": "McDonalds-El Dorado,AR", "additional": "1730 Northwest Ave, El Dorado,AR", "phone": " (870) 862-4012", "services": " dt\/wifi" }, "geometry": { "type": "Point", "coordinates": [ -92.6658, 33.2292 ] } },
{ "type": "Feature", "properties": { "name": "McDonalds-El Dorado,AR", "additional": "501 S Timberlane Dr, El Dorado,AR", "phone": " (870) 863-8550", "services": " dt\/wifi" }, "geometry": { "type": "Point", "coordinates": [ -92.6869, 33.2066 ] } },
{ "type": "Feature", "properties": { "name": "McDonalds-El Paso,AR", "additional": "1820 Highway 64 W, El Paso,AR", "phone": " (501) 796-4800", "services": " dt" }, "geometry": { "type": "Point", "coordinates": [ -92.0895, 35.1097 ] } },
{ "type": "Feature", "properties": { "name": "McDonalds-Elkins,AR", "additional": "1985 North Center St, Elkins,AR 72727", "phone": " (479) 240-4011", "services": " dt\/wifi" }, "geometry": { "type": "Point", "coordinates": [ -94.0225, 36.0278 ] } },
{ "type": "Feature", "properties": { "name": "McDonalds-Eureka Springs,AR", "additional": "148 E Van Buren, Eureka Springs,AR", "phone": " (479) 253-6106", "services": " dt\/wifi" }, "geometry": { "type": "Point", "coordinates": [ -93.7375, 36.3915 ] } },
{ "type": "Feature", "properties": { "name": "McDonalds-Farmington,AR", "additional": "207 W Main St, Farmington,AR", "phone": " (479) 267-6555", "services": " dt\/wifi" }, "geometry": { "type": "Point", "coordinates": [ -94.2499, 36.0411 ] } },
{ "type": "Feature", "properties": { "name": "McDonalds-Fayetteville,AR", "additional": "1200 W Wilson [Ste 2], Fayetteville,AR", "phone": " (479) 444-1964", "services": " dt\/wifi" }, "geometry": { "type": "Point", "coordinates": [ -94.1984, 35.9973 ] } },
{ "type": "Feature", "properties": { "name": "McDonalds-Fayetteville,AR", "additional": "1641 N College Ave, Fayetteville,AR", "phone": " (479) 521-1767", "services": " dt\/wifi" }, "geometry": { "type": "Point", "coordinates": [ -94.156, 36.0832 ] } },
{ "type": "Feature", "properties": { "name": "McDonalds-Fayetteville,AR", "additional": "1870 N Crossover Rd, Fayetteville,AR", "phone": " (479) 527-9919", "services": " dt\/wifi" }, "geometry": { "type": "Point", "coordinates": [ -94.1212, 36.0862 ] } },
{ "type": "Feature", "properties": { "name": "McDonalds-Fayetteville,AR", "additional": "1963 W MLK Blvd, Fayetteville,AR", "phone": " (479) 443-4777", "services": " dt\/wifi" }, "geometry": { "type": "Point", "coordinates": [ -94.1579, 36.0632 ] } },
{ "type": "Feature", "properties": { "name": "McDonalds-Fayetteville,AR", "additional": "3080 W Wedington Dr, Fayetteville,AR", "phone": " (479) 442-7774", "services": " dt\/wifi" }, "geometry": { "type": "Point", "coordinates": [ -94.2028, 36.0784 ] } },
{ "type": "Feature", "properties": { "name": "McDonalds PlayPlace-Fayetteville,AR", "additional": "578 E Joyce Blvd, Fayetteville,AR", "phone": " (479) 442-0444", "services": " dt\/wifi" }, "geometry": { "type": "Point", "coordinates": [ -94.1484, 36.1238 ] } },
{ "type": "Feature", "properties": { "name": "McDonalds-Fordyce,AR", "additional": "1230 N Edgar St, Fordyce,AR 71742, none listed", "phone": " dt\/wifi", "services": null }, "geometry": { "type": "Point", "coordinates": [ -92.4262, 33.8248 ] } },
{ "type": "Feature", "properties": { "name": "McDonalds PlayPlace-Forrest City,AR", "additional": "2301 N Washington St, Forrest City,AR", "phone": " (870) 633-4146", "services": " dt\/wifi" }, "geometry": { "type": "Point", "coordinates": [ -90.79, 35.0332 ] } },
{ "type": "Feature", "properties": { "name": "McDonalds-Fort Smith,AR", "additional": "2221 Grand Ave, Fort Smith,AR", "phone": " (479) 785-0726", "services": " dt\/wifi" }, "geometry": { "type": "Point", "coordinates": [ -94.404, 35.3862 ] } },
{ "type": "Feature", "properties": { "name": "McDonalds [WM]-Fort Smith,AR", "additional": "2425 Zero St [WM], Fort Smith,AR", "phone": " (479) 646-7047", "services": " wifi" }, "geometry": { "type": "Point", "coordinates": [ -94.4076, 35.3288 ] } },
{ "type": "Feature", "properties": { "name": "McDonalds-Fort Smith,AR", "additional": "4800 Towson Ave, Fort Smith,AR", "phone": " (479) 646-7911", "services": " dt\/wifi" }, "geometry": { "type": "Point", "coordinates": [ -94.4228, 35.3381 ] } },
{ "type": "Feature", "properties": { "name": "McDonalds-Fort Smith,AR", "additional": "4900 Old Greenwood Rd, Fort Smith,AR 72903", "phone": " (479) 648-0385", "services": " dt\/wifi" }, "geometry": { "type": "Point", "coordinates": [ -94.3905, 35.3353 ] } },
{ "type": "Feature", "properties": { "name": "McDonalds-Fort Smith,AR", "additional": "5712 Kelley Hwy, Fort Smith,AR", "phone": " (479) 709-9107", "services": " dt\/wifi" }, "geometry": { "type": "Point", "coordinates": [ -94.3687, 35.4034 ] } },
{ "type": "Feature", "properties": { "name": "McDonalds-Fort Smith,AR", "additional": "5821 Rogers Ave, Fort Smith,AR", "phone": " (479) 452-5500", "services": " dt\/wifi" }, "geometry": { "type": "Point", "coordinates": [ -94.3682, 35.3611 ] } },
{ "type": "Feature", "properties": { "name": "McDonalds PlayPlace-Fort Smith,AR", "additional": "8311 Rogers Ave, Fort Smith,AR", "phone": " (479) 452-1204", "services": " dt\/wifi" }, "geometry": { "type": "Point", "coordinates": [ -94.3386, 35.3476 ] } },
{ "type": "Feature", "properties": { "name": "McDonalds PlayPlace-Fort Smith,AR", "additional": "9200 Highway 71 S, Fort Smith,AR", "phone": " (479) 648-3939", "services": " dt\/wifi" }, "geometry": { "type": "Point", "coordinates": [ -94.3878, 35.2961 ] } },
{ "type": "Feature", "properties": { "name": "McDonalds-Gassville,AR", "additional": "7403 Highway 62 W, Gassville,AR", "phone": " (870) 435-6880", "services": " dt\/wifi" }, "geometry": { "type": "Point", "coordinates": [ -92.4799, 36.288 ] } },
{ "type": "Feature", "properties": { "name": "McDonalds-Gentry,AR", "additional": "467 S Gentry, Gentry,AR 72734", "phone": " (479) 736-2500", "services": " dt\/wifi" }, "geometry": { "type": "Point", "coordinates": [ -94.4949, 36.2706 ] } },
{ "type": "Feature", "properties": { "name": "McDonalds-Glenwood,AR", "additional": "47 Hwy 70 East [Ste B], Glenwood,AR 71943", "phone": " (870) 356-2317", "services": " dt\/wifi" }, "geometry": { "type": "Point", "coordinates": [ -93.5484, 34.3215 ] } },
{ "type": "Feature", "properties": { "name": "McDonalds-Greenbrier,AR", "additional": "55 S Broadview St, Greenbrier,AR", "phone": " (501) 679-7499", "services": " dt\/wifi" }, "geometry": { "type": "Point", "coordinates": [ -92.3882, 35.2283 ] } },
{ "type": "Feature", "properties": { "name": "McDonalds PlayPlace-Greenwood,AR", "additional": "923 W Center St, Greenwood,AR", "phone": " (479) 996-4544", "services": " dt\/wifi" }, "geometry": { "type": "Point", "coordinates": [ -94.2705, 35.217 ] } },
{ "type": "Feature", "properties": { "name": "McDonalds-Hardy,AR", "additional": "400 Hwy 63 N, Hardy,AR", "phone": " (870) 856-3377", "services": " dt\/wifi" }, "geometry": { "type": "Point", "coordinates": [ -91.4868, 36.3179 ] } },
{ "type": "Feature", "properties": { "name": "McDonalds-Harrisburg,AR", "additional": "600 North Illinois St, Harrisburg,AR 72432", "phone": " (870) 271-5041", "services": " dt\/wifi" }, "geometry": { "type": "Point", "coordinates": [ -90.7235, 35.5707 ] } },
{ "type": "Feature", "properties": { "name": "McDonalds PlayPlace-Harrison,AR", "additional": "1314 N Main, Harrison,AR", "phone": " (870) 741-5353", "services": " dt\/wifi" }, "geometry": { "type": "Point", "coordinates": [ -93.1162, 36.2451 ] } },
{ "type": "Feature", "properties": { "name": "McDonalds-Harrison,AR", "additional": "211 N Wal Mart Dr, Harrison,AR 72601", "phone": " (870) 741-5266", "services": " dt\/wifi" }, "geometry": { "type": "Point", "coordinates": [ -93.0991, 36.2401 ] } },
{ "type": "Feature", "properties": { "name": "McDonalds-Heber Springs,AR", "additional": "1611 Highway 25B, Heber Springs,AR", "phone": " (501) 362-3275", "services": " dt\/wifi" }, "geometry": { "type": "Point", "coordinates": [ -92.0292, 35.5084 ] } },
{ "type": "Feature", "properties": { "name": "McDonalds-Hope,AR", "additional": "1601 N Hervey, Hope,AR", "phone": " (870) 777-1928", "services": " dt\/wifi" }, "geometry": { "type": "Point", "coordinates": [ -93.6057, 33.68 ] } },
{ "type": "Feature", "properties": { "name": "McDonalds-Hot Springs,AR", "additional": "1214 Albert Pike Hwy, Hot Springs,AR", "phone": " (501) 321-9663", "services": " dt\/wifi" }, "geometry": { "type": "Point", "coordinates": [ -93.0819, 34.4934 ] } },
{ "type": "Feature", "properties": { "name": "McDonalds-Hot Springs,AR", "additional": "1713 Airport Rd, Hot Springs,AR", "phone": " (501) 767-1799", "services": " dt\/wifi" }, "geometry": { "type": "Point", "coordinates": [ -93.125, 34.4726 ] } },
{ "type": "Feature", "properties": { "name": "McDonalds-Hot Springs,AR", "additional": "200 E Grand Ave, Hot Springs,AR", "phone": " (501) 625-3579", "services": " dt\/wifi" }, "geometry": { "type": "Point", "coordinates": [ -93.0476, 34.5038 ] } },
{ "type": "Feature", "properties": { "name": "McDonalds-Hot Springs,AR", "additional": "2975 Malvern Ave, Hot Springs,AR 71901", "phone": " (501) 262-1127", "services": " dt\/wifi" }, "geometry": { "type": "Point", "coordinates": [ -92.9913, 34.4719 ] } },
{ "type": "Feature", "properties": { "name": "McDonalds-Hot Springs,AR", "additional": "3101 Albert Pike Rd, Hot Springs,AR", "phone": " (501) 767-8998", "services": " dt\/wifi" }, "geometry": { "type": "Point", "coordinates": [ -93.1261, 34.5033 ] } },
{ "type": "Feature", "properties": { "name": "McDonalds-Hot Springs,AR", "additional": "3229 Central Ave, Hot Springs,AR", "phone": " (501) 623-6212", "services": " dt\/wifi" }, "geometry": { "type": "Point", "coordinates": [ -93.0596, 34.4775 ] } },
{ "type": "Feature", "properties": { "name": "McDonalds-Hot Springs,AR", "additional": "4395 Central Ave, Hot Springs,AR", "phone": " (501) 525-6506", "services": " dt\/wifi" }, "geometry": { "type": "Point", "coordinates": [ -93.0752, 34.4518 ] } },
{ "type": "Feature", "properties": { "name": "McDonalds-Huntsville,AR", "additional": "14243 US Hwy 412, Huntsville,AR 72740", "phone": " (479) 738-1777", "services": " dt\/wifi" }, "geometry": { "type": "Point", "coordinates": [ -93.7096, 36.1134 ] } },
{ "type": "Feature", "properties": { "name": "McDonalds [WM]-Jacksonville,AR", "additional": "2000 John Harden Dr [WM], Jacksonville,AR", "phone": " (501) 241-0465", "services": " none" }, "geometry": { "type": "Point", "coordinates": [ -92.1096, 34.8848 ] } },
{ "type": "Feature", "properties": { "name": "McDonalds-Jacksonville,AR", "additional": "2030 N 1st St, Jacksonville,AR", "phone": " (501) 982-4939", "services": " dt\/wifi" }, "geometry": { "type": "Point", "coordinates": [ -92.1074, 34.885 ] } },
{ "type": "Feature", "properties": { "name": "McDonalds-Jacksonville,AR", "additional": "816 W Main St, Jacksonville,AR", "phone": " (501) 982-6656", "services": " dt\/wifi" }, "geometry": { "type": "Point", "coordinates": [ -92.1178, 34.8673 ] } },
{ "type": "Feature", "properties": { "name": "McDonalds-Jonesboro,AR", "additional": "111 E Highland Dr, Jonesboro,AR", "phone": " (870) 932-7090", "services": " dt\/wifi" }, "geometry": { "type": "Point", "coordinates": [ -90.7055, 35.8213 ] } },
{ "type": "Feature", "properties": { "name": "McDonalds [WM]-Jonesboro,AR", "additional": "1815 E Highland Dr [WM], Jonesboro,AR", "phone": " (870) 930-9557", "services": " none" }, "geometry": { "type": "Point", "coordinates": [ -90.6851, 35.8211 ] } },
{ "type": "Feature", "properties": { "name": "McDonalds-Jonesboro,AR", "additional": "1910 E Johnson Ave, Jonesboro,AR", "phone": " (870) 972-0922", "services": " dt\/wifi" }, "geometry": { "type": "Point", "coordinates": [ -90.6806, 35.8459 ] } },
{ "type": "Feature", "properties": { "name": "McDonalds-Jonesboro,AR", "additional": "2124 Red Wolf Blvd, Jonesboro,AR 72401", "phone": " (870) 275-7720", "services": " dt\/wifi" }, "geometry": { "type": "Point", "coordinates": [ -90.6684, 35.8186 ] } },
{ "type": "Feature", "properties": { "name": "McDonalds-Jonesboro,AR", "additional": "2207 E Nettleton Ave, Jonesboro,AR", "phone": " (870) 935-0910", "services": " dt\/wifi" }, "geometry": { "type": "Point", "coordinates": [ -90.6792, 35.8284 ] } },
{ "type": "Feature", "properties": { "name": "McDonalds-Lake Village,AR", "additional": "1014 N Highway 65, Lake Village,AR", "phone": " (870) 265-4000", "services": " dt\/wifi" }, "geometry": { "type": "Point", "coordinates": [ -91.3117, 33.3948 ] } },
{ "type": "Feature", "properties": { "name": "McDonalds-Little Rock,AR", "additional": "10201 N Rodney Parham Rd, Little Rock,AR", "phone": " (501) 227-7914", "services": " dt\/wifi" }, "geometry": { "type": "Point", "coordinates": [ -92.3876, 34.7665 ] } },
{ "type": "Feature", "properties": { "name": "McDonalds-Little Rock,AR", "additional": "104 S University Ave, Little Rock,AR 72205", "phone": " (501) 603-2228", "services": " dt\/wifi" }, "geometry": { "type": "Point", "coordinates": [ -92.3411, 34.7517 ] } },
{ "type": "Feature", "properties": { "name": "McDonalds-Little Rock,AR", "additional": "10501 Stagecoach Rd, Little Rock,AR 72210", "phone": " (501) 407-9124", "services": " dt\/wifi" }, "geometry": { "type": "Point", "coordinates": [ -92.4266, 34.6557 ] } },
{ "type": "Feature", "properties": { "name": "McDonalds PlayPlace-Little Rock,AR", "additional": "11500 W Markham St, Little Rock,AR", "phone": " (501) 223-2060", "services": " dt\/wifi" }, "geometry": { "type": "Point", "coordinates": [ -92.4042, 34.7542 ] } },
{ "type": "Feature", "properties": { "name": "McDonalds-Little Rock,AR", "additional": "14401 Arch At Pike, Little Rock,AR 72206", "phone": " (501) 261-7776", "services": " dt\/wifi" }, "geometry": { "type": "Point", "coordinates": [ -92.3144, 34.6199 ] } },
{ "type": "Feature", "properties": { "name": "McDonalds-Little Rock,AR", "additional": "17601 Chenal Pkwy, Little Rock,AR 72223", "phone": " (501) 821-0388", "services": " dt\/wifi" }, "geometry": { "type": "Point", "coordinates": [ -92.4561, 34.7662 ] } },
{ "type": "Feature", "properties": { "name": "McDonalds [WM]-Little Rock,AR", "additional": "19301 Cantrell Rd [WM], Little Rock,AR", "phone": " (501) 868-7693", "services": " none" }, "geometry": { "type": "Point", "coordinates": [ -92.4848, 34.8108 ] } },
{ "type": "Feature", "properties": { "name": "McDonalds-Little Rock,AR", "additional": "4111 S University Ave, Little Rock,AR", "phone": " (501) 565-0470", "services": " dt\/wifi" }, "geometry": { "type": "Point", "coordinates": [ -92.3424, 34.7152 ] } },
{ "type": "Feature", "properties": { "name": "McDonalds-Little Rock,AR", "additional": "701 Broadway St, Little Rock,AR", "phone": " (501) 372-2661", "services": " dt\/wifi" }, "geometry": { "type": "Point", "coordinates": [ -92.2762, 34.7427 ] } },
{ "type": "Feature", "properties": { "name": "McDonalds-Little Rock,AR", "additional": "7200 W 12th St, Little Rock,AR", "phone": " (501) 663-4873", "services": " dt\/wifi" }, "geometry": { "type": "Point", "coordinates": [ -92.3544, 34.742 ] } },
{ "type": "Feature", "properties": { "name": "McDonalds-Little Rock,AR", "additional": "7721 Cantrell Rd, Little Rock,AR", "phone": " (501) 225-3670", "services": " dt\/wifi" }, "geometry": { "type": "Point", "coordinates": [ -92.3603, 34.7732 ] } },
{ "type": "Feature", "properties": { "name": "McDonalds-Little Rock,AR", "additional": "8011 Geyer Springs Rd, Little Rock,AR", "phone": " (501) 565-4550", "services": " dt\/wifi" }, "geometry": { "type": "Point", "coordinates": [ -92.3437, 34.6778 ] } },
{ "type": "Feature", "properties": { "name": "McDonalds-Little Rock,AR", "additional": "8710 Fourche Dam Pike, Little Rock,AR", "phone": " (501) 490-8669", "services": " dt\/wifi" }, "geometry": { "type": "Point", "coordinates": [ -92.1894, 34.7188 ] } },
{ "type": "Feature", "properties": { "name": "McDonalds-Little Rock,AR", "additional": "8820 Baseline Rd, Little Rock,AR", "phone": " (501) 565-7003", "services": " dt\/wifi" }, "geometry": { "type": "Point", "coordinates": [ -92.3767, 34.6702 ] } },
{ "type": "Feature", "properties": { "name": "McDonalds-Lonoke,AR", "additional": "1834 Highway 31 N, Lonoke,AR", "phone": " (501) 676-5160", "services": " dt\/wifi" }, "geometry": { "type": "Point", "coordinates": [ -91.8895, 34.8005 ] } },
{ "type": "Feature", "properties": { "name": "McDonalds-Lowell,AR", "additional": "503 W Monroe, Lowell,AR", "phone": " (479) 770-3300", "services": " dt\/wifi" }, "geometry": { "type": "Point", "coordinates": [ -94.1458, 36.2542 ] } },
{ "type": "Feature", "properties": { "name": "McDonalds PlayPlace-Magnolia,AR", "additional": "1127 East Main St, Magnolia,AR", "phone": " (870) 234-7782", "services": " dt\/wifi" }, "geometry": { "type": "Point", "coordinates": [ -93.2255, 33.2667 ] } },
{ "type": "Feature", "properties": { "name": "McDonalds-Malvern,AR", "additional": "1920 Martin Luther King Blvd, Malvern,AR", "phone": " (501) 467-8787", "services": " dt\/wifi" }, "geometry": { "type": "Point", "coordinates": [ -92.8296, 34.3926 ] } },
{ "type": "Feature", "properties": { "name": "McDonalds PlayPlace-Malvern,AR", "additional": "307 E Page Ave, Malvern,AR", "phone": " (501) 332-3100", "services": " dt\/wifi" }, "geometry": { "type": "Point", "coordinates": [ -92.8097, 34.3633 ] } },
{ "type": "Feature", "properties": { "name": "McDonalds-Marion,AR", "additional": "3440 & I 55 Service Rd, Marion,AR", "phone": " (870) 739-5346", "services": " dt\/wifi" }, "geometry": { "type": "Point", "coordinates": [ -90.2063, 35.2132 ] } },
{ "type": "Feature", "properties": { "name": "McDonalds-Marked Tree,AR", "additional": "208 Hester Parker Dr, Marked Tree,AR", "phone": " (870) 358-2345", "services": " dt\/wifi" }, "geometry": { "type": "Point", "coordinates": [ -90.4325, 35.5281 ] } },
{ "type": "Feature", "properties": { "name": "McDonalds-Marshall,AR", "additional": "804 North Hwy 65, Marshall,AR 72650", "phone": " (870) 448-2191", "services": " dt\/wifi" }, "geometry": { "type": "Point", "coordinates": [ -92.6562, 35.9079 ] } },
{ "type": "Feature", "properties": { "name": "McDonalds-Mena,AR", "additional": "709 Highway 71 & 88 N, Mena,AR", "phone": " (479) 394-1131", "services": " dt\/wifi" }, "geometry": { "type": "Point", "coordinates": [ -94.2243, 34.5863 ] } },
{ "type": "Feature", "properties": { "name": "McDonalds-Monticello,AR", "additional": "369 Highway 425 n, Monticello,AR", "phone": " (870) 367-7441", "services": " dt\/wifi" }, "geometry": { "type": "Point", "coordinates": [ -91.8018, 33.6355 ] } },
{ "type": "Feature", "properties": { "name": "McDonalds PlayPlace-Morrilton,AR", "additional": "1805 N Business 9, Morrilton,AR", "phone": " (501) 354-1522", "services": " dt\/wifi" },